ADDRESS,BLK_NO,BUILDING,LATITUDE,LONGITUDE,LONGTITUDE,POSTAL,ROAD_NAME,SEARCHVAL,X,Y
1 TAN TOCK SENG LINK TTSH INTEGRATED CARE HUB SINGAPORE 307382,1,TTSH INTEGRATED CARE HUB,1.3237044324018,103.846449431289,103.846449431289,307382,TAN TOCK SENG LINK,TTSH INTEGRATED CARE HUB,29461.3323260052,33994.0316262599
12D CHANCERY HILL ROAD CHANCERY HILL VILLAS SINGAPORE 307392,12D,CHANCERY HILL VILLAS,1.32539030907659,103.838781714291,103.838781714291,307392,CHANCERY HILL ROAD,CHANCERY HILL VILLAS,28607.9918131372,34180.4440261554
12E CHANCERY HILL ROAD CHANCERY HILL VILLAS SINGAPORE 307393,12E,CHANCERY HILL VILLAS,1.32544191189945,103.838755102544,103.838755102544,307393,CHANCERY HILL ROAD,CHANCERY HILL VILLAS,28605.0301817339,34186.1499951053
12F CHANCERY HILL ROAD CHANCERY HILL VILLAS SINGAPORE 307394,12F,CHANCERY HILL VILLAS,1.3254639173241,103.838862816617,103.838862816617,307394,CHANCERY HILL ROAD,CHANCERY HILL VILLAS,28617.0176653452,34188.5832685847
12G CHANCERY HILL ROAD CHANCERY HILL VILLAS SINGAPORE 307395,12G,CHANCERY HILL VILLAS,1.3254917407877,103.838916165508,103.838916165508,307395,CHANCERY HILL ROAD,CHANCERY HILL VILLAS,28622.9548514234,34191.6598577891
12H CHANCERY HILL ROAD CHANCERY HILL VILLAS SINGAPORE 307396,12H,CHANCERY HILL VILLAS,1.32555208856113,103.839008139437,103.839008139437,307396,CHANCERY HILL ROAD,CHANCERY HILL VILLAS,28633.1906057457,34198.3328282833
12J CHANCERY HILL ROAD CHANCERY HILL VILLAS SINGAPORE 307397,12J,CHANCERY HILL VILLAS,1.32551838179239,103.839058426305,103.839058426305,307397,CHANCERY HILL ROAD,CHANCERY HILL VILLAS,28638.7870348627,34194.6057195719
12K CHANCERY HILL ROAD CHANCERY HILL VILLAS SINGAPORE 307398,12K,CHANCERY HILL VILLAS,1.32547568176112,103.83912560438,103.83912560438,307398,CHANCERY HILL ROAD,CHANCERY HILL VILLAS,28646.2632873766,34189.8841865249
12L CHANCERY HILL ROAD CHANCERY HILL VILLAS SINGAPORE 307399,12L,CHANCERY HILL VILLAS,1.32544356181868,103.839176359044,103.839176359044,307399,CHANCERY HILL ROAD,CHANCERY HILL VILLAS,28651.9117774265,34186.3325413149
12M CHANCERY HILL ROAD CHANCERY HILL VILLAS SINGAPORE 307400,12M,CHANCERY HILL VILLAS,1.32540090010688,103.839243499583,103.839243499583,307400,CHANCERY HILL ROAD,CHANCERY HILL VILLAS,28659.3838529587,34181.6152457856
12N CHANCERY HILL ROAD CHANCERY HILL VILLAS SINGAPORE 307401,12N,CHANCERY HILL VILLAS,1.32537001086342,103.839295015775,103.839295015775,307401,CHANCERY HILL ROAD,CHANCERY HILL VILLAS,28665.1170933628,34178.1996854302
12P CHANCERY HILL ROAD CHANCERY HILL VILLAS SINGAPORE 307402,12P,CHANCERY HILL VILLAS,1.32528366525873,103.839111226835,103.839111226835,307402,CHANCERY HILL ROAD,CHANCERY HILL VILLAS,28644.6632612217,34168.6519829147
12Q CHANCERY HILL ROAD CHANCERY HILL VILLAS SINGAPORE 307403,12Q,CHANCERY HILL VILLAS,1.32525248266191,103.839008985683,103.839008985683,307403,CHANCERY HILL ROAD,CHANCERY HILL VILLAS,28633.2848602468,34165.2039450128
12R CHANCERY HILL ROAD CHANCERY HILL VILLAS SINGAPORE 307404,12R,CHANCERY HILL VILLAS,1.32535640723294,103.839032183142,103.839032183142,307404,CHANCERY HILL ROAD,CHANCERY HILL VILLAS,28635.8664771141,34176.6953969076
12S CHANCERY HILL ROAD CHANCERY HILL VILLAS SINGAPORE 307405,12S,CHANCERY HILL VILLAS,1.32533533460164,103.838966511389,103.838966511389,307405,CHANCERY HILL ROAD,CHANCERY HILL VILLAS,28628.5578789618,34174.3652767167
3D CHANCERY HILL ROAD SINGAPORE 307406,3D,NIL,1.32460367619918,103.838643713995,103.838643713995,307406,CHANCERY HILL ROAD,3D CHANCERY HILL ROAD SINGAPORE 307406,28592.633959271,34093.4621646479
1B ASIMONT LANE SINGAPORE 307407,1B,NIL,1.32078416376417,103.834636783994,103.834636783994,307407,ASIMONT LANE,1B ASIMONT LANE SINGAPORE 307407,28146.7031708201,33671.1194883194
49 ASIMONT LANE ASIMONT VILLAS SINGAPORE 307408,49,ASIMONT VILLAS,1.32094019773002,103.835841851475,103.835841851475,307408,ASIMONT LANE,ASIMONT VILLAS,28280.8152492382,33688.3730260059
16A BARKER ROAD SINGAPORE 307412,16A,NIL,1.32086899556755,103.834543548731,103.834543548731,307412,BARKER ROAD,16A BARKER ROAD SINGAPORE 307412,28136.3270033216,33680.4997483492
9A BARKER ROAD BARKER 9 SINGAPORE 307417,9A,BARKER 9,1.31987965925657,103.833792903831,103.833792903831,307417,BARKER ROAD,BARKER 9,28052.787670942,33571.1039908789
9B BARKER ROAD BARKER 9 SINGAPORE 307418,9B,BARKER 9,1.31993297506148,103.833686369059,103.833686369059,307418,BARKER ROAD,BARKER 9,28040.9313990399,33576.9993768707
9C BARKER ROAD BARKER 9 SINGAPORE 307419,9C,BARKER 9,1.32003915661467,103.833717129834,103.833717129834,307419,BARKER ROAD,BARKER 9,28044.3547685342,33588.740388291
9D BARKER ROAD BARKER 9 SINGAPORE 307420,9D,BARKER 9,1.32002220047998,103.833834457618,103.833834457618,307420,BARKER ROAD,BARKER 9,28057.4121951023,33586.8654683083
9E BARKER ROAD BARKER 9 SINGAPORE 307421,9E,BARKER 9,1.32000010144942,103.833934275194,103.833934275194,307421,BARKER ROAD,BARKER 9,28068.5209083427,33584.4218734466
31 NOVENA RISE SINGAPORE 307422,31,NIL,1.32403934270124,103.843566739039,103.843566739039,307422,NOVENA RISE,31 NOVENA RISE SINGAPORE 307422,29140.5173961204,34031.0627790634
68E GILSTEAD ROAD GILSTEAD 68 SINGAPORE 307427,68E,GILSTEAD 68,1.3187457960028,103.840998466953,103.840998466953,307427,GILSTEAD ROAD,GILSTEAD 68,28854.6962810541,33445.7285238169
68F GILSTEAD ROAD GILSTEAD 68 SINGAPORE 307428,68F,GILSTEAD 68,1.31879326973169,103.841014570105,103.841014570105,307428,GILSTEAD ROAD,GILSTEAD 68,28856.4883878343,33450.9779305011
68G GILSTEAD ROAD GILSTEAD 68 SINGAPORE 307429,68G,GILSTEAD 68,1.31885365652304,103.841035639804,103.841035639804,307429,GILSTEAD ROAD,GILSTEAD 68,28858.8332182644,33457.655199049
68H GILSTEAD ROAD GILSTEAD 68 SINGAPORE 307430,68H,GILSTEAD 68,1.31890409229616,103.841058051663,103.841058051663,307430,GILSTEAD ROAD,GILSTEAD 68,28861.3274211949,33463.2321355846
43B GILSTEAD ROAD SINGAPORE 307431,43B,NIL,1.31892837612608,103.838851569108,103.838851569108,307431,GILSTEAD ROAD,43B GILSTEAD ROAD SINGAPORE 307431,28615.7675370825,33465.9166635964
45C GILSTEAD ROAD SINGAPORE 307432,45C,NIL,1.31906766192494,103.839177306651,103.839177306651,307432,GILSTEAD ROAD,45C GILSTEAD ROAD SINGAPORE 307432,28652.0188958207,33481.3182546999
68A GILSTEAD ROAD GILSTEAD 68 SINGAPORE 307433,68A,GILSTEAD 68,1.3188614152758,103.841188692093,103.841188692093,307433,GILSTEAD ROAD,GILSTEAD 68,28875.8664352978,33458.5131753143
68B GILSTEAD ROAD GILSTEAD 68 SINGAPORE 307434,68B,GILSTEAD 68,1.31881391280656,103.841172453495,103.841172453495,307434,GILSTEAD ROAD,GILSTEAD 68,28874.0592550617,33453.2605904918
68C GILSTEAD ROAD GILSTEAD 68 SINGAPORE 307435,68C,GILSTEAD 68,1.31875364426644,103.841152191826,103.841152191826,307435,GILSTEAD ROAD,GILSTEAD 68,28871.8043508111,33446.5963977128
68D GILSTEAD ROAD GILSTEAD 68 SINGAPORE 307436,68D,GILSTEAD 68,1.31870611524281,103.841136594271,103.841136594271,307436,GILSTEAD ROAD,GILSTEAD 68,28870.0685122125,33441.3408768978
5J CHANCERY LANE FIVE CHANCERY SINGAPORE 307437,5J,FIVE CHANCERY,1.31888859383617,103.836619429525,103.836619429525,307437,CHANCERY LANE,FIVE CHANCERY,28367.3522924576,33461.5173029676
5K CHANCERY LANE FIVE CHANCERY SINGAPORE 307438,5K,FIVE CHANCERY,1.31884186425087,103.836683556189,103.836683556189,307438,CHANCERY LANE,FIVE CHANCERY,28374.4889684627,33456.350194931
5L CHANCERY LANE FIVE CHANCERY SINGAPORE 307439,5L,FIVE CHANCERY,1.31879671218366,103.836750020737,103.836750020737,307439,CHANCERY LANE,FIVE CHANCERY,28381.8858280554,33451.3575212844
5M CHANCERY LANE FIVE CHANCERY SINGAPORE 307440,5M,FIVE CHANCERY,1.31875292768235,103.836817985762,103.836817985762,307440,CHANCERY LANE,FIVE CHANCERY,28389.4496761141,33446.5160664842
37K CHANCERY LANE SINGAPORE 307441,37K,NIL,1.3224927233659,103.838497347575,103.838497347575,307441,CHANCERY LANE,37K CHANCERY LANE SINGAPORE 307441,28576.345334637,33860.0437979158
37L CHANCERY LANE SINGAPORE 307442,37L,NIL,1.32262227573578,103.838476413739,103.838476413739,307442,CHANCERY LANE,37L CHANCERY LANE SINGAPORE 307442,28574.0155776627,33874.3690292481
37M CHANCERY LANE SINGAPORE 307443,37M,NIL,1.32271189566732,103.838456915842,103.838456915842,307443,CHANCERY LANE,37M CHANCERY LANE SINGAPORE 307443,28571.8456356423,33884.2787368502
51D CHANCERY LANE SINGAPORE 307444,51D,NIL,1.32239474579644,103.841127240082,103.841127240082,307444,CHANCERY LANE,51D CHANCERY LANE SINGAPORE 307444,28869.0262039248,33849.2107049339
5E CHANCERY LANE FIVE CHANCERY SINGAPORE 307447,5E,FIVE CHANCERY,1.3188117976668,103.83649899467,103.83649899467,307447,CHANCERY LANE,FIVE CHANCERY,28353.949084444,33453.0255595986
5F CHANCERY LANE FIVE CHANCERY SINGAPORE 307454,5F,FIVE CHANCERY,1.31891249174004,103.83646827811,103.83646827811,307454,CHANCERY LANE,FIVE CHANCERY,28350.5306183631,33464.1597887501
5G CHANCERY LANE FIVE CHANCERY SINGAPORE 307455,5G,FIVE CHANCERY,1.31902737258841,103.836423181239,103.836423181239,307455,CHANCERY LANE,FIVE CHANCERY,28345.5117629105,33476.8627166916
5H CHANCERY LANE FIVE CHANCERY SINGAPORE 307456,5H,FIVE CHANCERY,1.31897360662044,103.836551226026,103.836551226026,307456,CHANCERY LANE,FIVE CHANCERY,28359.7618993772,33470.9175701346
48H GILSTEAD ROAD VILLAS @ GILSTEAD SINGAPORE 307457,48H,VILLAS @ GILSTEAD,1.31839447291585,103.83919074764,103.83919074764,307457,GILSTEAD ROAD,VILLAS @ GILSTEAD,28653.5149211837,33406.8804747555
48J GILSTEAD ROAD VILLAS @ GILSTEAD SINGAPORE 307458,48J,VILLAS @ GILSTEAD,1.31839169134753,103.839145836659,103.839145836659,307458,GILSTEAD ROAD,VILLAS @ GILSTEAD,28648.5167690329,33406.5728915036
48K GILSTEAD ROAD VILLAS @ GILSTEAD SINGAPORE 307459,48K,VILLAS @ GILSTEAD,1.31838891744187,103.839101371443,103.839101371443,307459,GILSTEAD ROAD,VILLAS @ GILSTEAD,28643.5682261065,33406.266155757
46G GILSTEAD ROAD VILLAS @ GILSTEAD SINGAPORE 307460,46G,VILLAS @ GILSTEAD,1.31871823757915,103.839116638344,103.839116638344,307460,GILSTEAD ROAD,VILLAS @ GILSTEAD,28645.2671983009,33442.680689197
45B GILSTEAD ROAD SINGAPORE 307461,45B,NIL,1.31904520805255,103.839105944285,103.839105944285,307461,GILSTEAD ROAD,45B GILSTEAD ROAD SINGAPORE 307461,28644.076970377,33478.8354022633
2 SUFFOLK WALK VIVA SINGAPORE 307462,2,VIVA,1.31565586377638,103.844444721095,103.844444721095,307462,SUFFOLK WALK,VIVA,29238.232133314,33104.0611324459
4 SUFFOLK WALK VIVA SINGAPORE 307463,4,VIVA,1.31568381422295,103.844294244735,103.844294244735,307463,SUFFOLK WALK,VIVA,29221.485554087,33107.1516751908
6 SUFFOLK WALK VIVA SINGAPORE 307464,6,VIVA,1.31543566248813,103.844220359436,103.844220359436,307464,SUFFOLK WALK,VIVA,29213.2629536306,33079.7122950871
8 SUFFOLK WALK VIVA SINGAPORE 307465,8,VIVA,1.31571427932267,103.84385406558,103.84385406558,307465,SUFFOLK WALK,VIVA,29172.4978515524,33110.5201385617
2 SINARAN DRIVE SOLEIL @ SINARAN SINGAPORE 307467,2,SOLEIL @ SINARAN,1.31960020004528,103.845271738384,103.845271738384,307467,SINARAN DRIVE,SOLEIL @ SINARAN,29330.2690810505,33540.2060093489
6 SINARAN DRIVE SOLEIL @ SINARAN SINGAPORE 307468,6,SOLEIL @ SINARAN,1.31943667027954,103.845056202104,103.845056202104,307468,SINARAN DRIVE,SOLEIL @ SINARAN,29306.2820974384,33522.1236131955
4 SINARAN DRIVE SOLEIL @ SINARAN SINGAPORE 307469,4,SOLEIL @ SINARAN,1.31929577649979,103.845484000308,103.845484000308,307469,SINARAN DRIVE,SOLEIL @ SINARAN,29353.8919105511,33506.5445306357
"8 SINARAN DRIVE OASIA HOTEL NOVENA, SINGAPORE SINGAPORE 307470",8,"OASIA HOTEL NOVENA, SINGAPORE",1.32003403492859,103.844825960743,103.844825960743,307470,SINARAN DRIVE,"OASIA HOTEL NOVENA, SINGAPORE",29280.6581909992,33588.1770103108
45C BARKER ROAD BARKER VILLE SINGAPORE 307472,45C,BARKER VILLE,1.3196124720456,103.836684534693,103.836684534693,307472,BARKER ROAD,BARKER VILLE,28374.597751596,33541.5600476004
45D BARKER ROAD BARKER VILLE SINGAPORE 307473,45D,BARKER VILLE,1.31949708209182,103.836698845243,103.836698845243,307473,BARKER ROAD,BARKER VILLE,28376.1903923629,33528.8008212075
45E BARKER ROAD BARKER VILLE SINGAPORE 307474,45E,BARKER VILLE,1.31948207395914,103.836626539965,103.836626539965,307474,BARKER ROAD,BARKER VILLE,28368.1435278198,33527.1412881967
45F BARKER ROAD BARKER VILLE SINGAPORE 307475,45F,BARKER VILLE,1.3194715559073,103.836522274536,103.836522274536,307475,BARKER ROAD,BARKER VILLE,28356.5398119744,33525.9782409221
45G BARKER ROAD BARKER VILLE SINGAPORE 307476,45G,BARKER VILLE,1.31946504092008,103.83641927923,103.83641927923,307476,BARKER ROAD,BARKER VILLE,28345.0774476128,33525.2578326408
28A BARKER ROAD SINGAPORE 307478,28A,NIL,1.32141992372266,103.835261341353,103.835261341353,307478,BARKER ROAD,28A BARKER ROAD SINGAPORE 307478,28216.2101751445,33741.4186057784
28B BARKER ROAD SINGAPORE 307479,28B,NIL,1.32140492256748,103.835314825798,103.835314825798,307479,BARKER ROAD,28B BARKER ROAD SINGAPORE 307479,28222.1624649465,33739.7598597333
28C BARKER ROAD SINGAPORE 307480,28C,NIL,1.3213825385613,103.835366657725,103.835366657725,307480,BARKER ROAD,28C BARKER ROAD SINGAPORE 307480,28227.9308464797,33737.2847559005
28D BARKER ROAD SINGAPORE 307481,28D,NIL,1.32135145203499,103.835419987947,103.835419987947,307481,BARKER ROAD,28D BARKER ROAD SINGAPORE 307481,28233.865974335,33733.8473723307
30A BARKER ROAD SINGAPORE 307482,30A,NIL,1.32118465680807,103.835284866356,103.835284866356,307482,BARKER ROAD,30A BARKER ROAD SINGAPORE 307482,28218.8282952001,33715.4040002041
30B BARKER ROAD SINGAPORE 307483,30B,NIL,1.3210739457951,103.835281354817,103.835281354817,307483,BARKER ROAD,30B BARKER ROAD SINGAPORE 307483,28218.4375052629,33703.1621444579
30C BARKER ROAD SINGAPORE 307484,30C,NIL,1.32099770649802,103.835304599808,103.835304599808,307484,BARKER ROAD,30C BARKER ROAD SINGAPORE 307484,28221.0244492944,33694.7319964375
45A BARKER ROAD BARKER VILLE SINGAPORE 307485,45A,BARKER VILLE,1.3195882638863,103.836506340841,103.836506340841,307485,BARKER ROAD,BARKER VILLE,28354.76653188,33538.8832076564
45B BARKER ROAD BARKER VILLE SINGAPORE 307486,45B,BARKER VILLE,1.31960748117152,103.83661087418,103.83661087418,307486,BARKER ROAD,BARKER VILLE,28366.4000616893,33541.0081714522
1H MOUNT ROSIE ROAD SINGAPORE 307487,1H,NIL,1.32116685867582,103.836596314204,103.836596314204,307487,MOUNT ROSIE ROAD,1H MOUNT ROSIE ROAD SINGAPORE 307487,28364.7794533055,33713.4361272436
1J MOUNT ROSIE ROAD SINGAPORE 307488,1J,NIL,1.32118956529249,103.836655185942,103.836655185942,307488,MOUNT ROSIE ROAD,1J MOUNT ROSIE ROAD SINGAPORE 307488,28371.3312913291,33715.9469170272
1K MOUNT ROSIE ROAD SINGAPORE 307489,1K,NIL,1.32121567001592,103.836723278956,103.836723278956,307489,MOUNT ROSIE ROAD,1K MOUNT ROSIE ROAD SINGAPORE 307489,28378.9093653401,33718.833453564
1L MOUNT ROSIE ROAD SINGAPORE 307490,1L,NIL,1.32123827589573,103.836782229569,103.836782229569,307490,MOUNT ROSIE ROAD,1L MOUNT ROSIE ROAD SINGAPORE 307490,28385.469981079,33721.3331047315
11H MOUNT ROSIE ROAD SINGAPORE 307491,11H,NIL,1.32229746362054,103.835600344941,103.835600344941,307491,MOUNT ROSIE ROAD,11H MOUNT ROSIE ROAD SINGAPORE 307491,28253.9378245212,33838.4524949454
35A BARKER ROAD SINGAPORE 307492,35A,NIL,1.3211922878319,103.836226977429,103.836226977429,307492,BARKER ROAD,35A BARKER ROAD SINGAPORE 307492,28323.6759249009,33716.2479018588
29R BARKER ROAD BARKER TERRACES SINGAPORE 307493,29R,BARKER TERRACES,1.32164733268533,103.835748682666,103.835748682666,307493,BARKER ROAD,BARKER TERRACES,28270.4464065926,33766.5643688776
29Q BARKER ROAD BARKER TERRACES SINGAPORE 307494,29Q,BARKER TERRACES,1.32168562269607,103.835776247519,103.835776247519,307494,BARKER ROAD,BARKER TERRACES,28273.5140970098,33770.7982847095
29P BARKER ROAD BARKER TERRACES SINGAPORE 307495,29P,BARKER TERRACES,1.32172391051655,103.835803874383,103.835803874383,307495,BARKER ROAD,BARKER TERRACES,28276.5886885282,33775.0319583956
29N BARKER ROAD BARKER TERRACES SINGAPORE 307496,29N,BARKER TERRACES,1.32176252079387,103.83583174249,103.83583174249,307496,BARKER ROAD,BARKER TERRACES,28279.6901277471,33779.3012877665
29M BARKER ROAD BARKER TERRACES SINGAPORE 307497,29M,BARKER TERRACES,1.32180059647074,103.835859305985,103.835859305985,307497,BARKER ROAD,BARKER TERRACES,28282.7576668253,33783.5115037654
29L BARKER ROAD BARKER TERRACES SINGAPORE 307498,29L,BARKER TERRACES,1.32190287391508,103.835717361592,103.835717361592,307498,BARKER ROAD,BARKER TERRACES,28266.9606547831,33794.8208029345
29K BARKER ROAD BARKER TERRACES SINGAPORE 307499,29K,BARKER TERRACES,1.32186346707084,103.835692406868,103.835692406868,307499,BARKER ROAD,BARKER TERRACES,28264.1834462052,33790.4633937292
29J BARKER ROAD BARKER TERRACES SINGAPORE 307500,29J,BARKER TERRACES,1.32182426443187,103.835666676205,103.835666676205,307500,BARKER ROAD,BARKER TERRACES,28261.31988307,33786.1285644416
29H BARKER ROAD BARKER TERRACES SINGAPORE 307501,29H,BARKER TERRACES,1.32178470402397,103.835640591704,103.835640591704,307501,BARKER ROAD,BARKER TERRACES,28258.4169412879,33781.7541748993
29G BARKER ROAD BARKER TERRACES SINGAPORE 307502,29G,BARKER TERRACES,1.32174507600335,103.83561494209,103.83561494209,307502,BARKER ROAD,BARKER TERRACES,28255.5623980109,33777.3723091651
29F BARKER ROAD BARKER TERRACES SINGAPORE 307503,29F,BARKER TERRACES,1.32170585967689,103.835589202182,103.835589202182,307503,BARKER ROAD,BARKER TERRACES,28252.6978057642,33773.0359664764
29E BARKER ROAD BARKER TERRACES SINGAPORE 307504,29E,BARKER TERRACES,1.32166654562771,103.835563194652,103.835563194652,307504,BARKER ROAD,BARKER TERRACES,28249.8034298215,33768.6888181195
29D BARKER ROAD BARKER TERRACES SINGAPORE 307505,29D,BARKER TERRACES,1.32162713686629,103.835537602155,103.835537602155,307505,BARKER ROAD,BARKER TERRACES,28246.955242821,33764.3311970402
10 SINARAN DRIVE NOVENA MEDICAL CENTRE SINGAPORE 307506,10,NOVENA MEDICAL CENTRE,1.32044103104797,103.844192628979,103.844192628979,307506,SINARAN DRIVE,NOVENA MEDICAL CENTRE,29210.1744085718,33633.1802354679
20 NOVENA RISE SINGAPORE 307507,20,NIL,1.32404514744354,103.842894895979,103.842894895979,307507,NOVENA RISE,20 NOVENA RISE SINGAPORE 307507,29065.7480001468,34031.7043392453
22 NOVENA RISE SINGAPORE 307508,22,NIL,1.32402784464263,103.842931449225,103.842931449225,307508,NOVENA RISE,22 NOVENA RISE SINGAPORE 307508,29069.8160171583,34029.7910999954
24 NOVENA RISE SINGAPORE 307509,24,NIL,1.3239746977053,103.843013088014,103.843013088014,307509,NOVENA RISE,24 NOVENA RISE SINGAPORE 307509,29078.9016183661,34023.9144196156
26 NOVENA RISE SINGAPORE 307510,26,NIL,1.32395389222361,103.843047709412,103.843047709412,307510,NOVENA RISE,26 NOVENA RISE SINGAPORE 307510,29082.7546418896,34021.6138712466
2B CHANCERY HILL ROAD SINGAPORE 307511,2B,NIL,1.32285820106639,103.839279493118,103.839279493118,307511,CHANCERY HILL ROAD,2B CHANCERY HILL ROAD SINGAPORE 307511,28663.3902443554,33900.4566411991
6U CHANCERY HILL ROAD THE COMPASS AT CHANCERY SINGAPORE 307512,6U,THE COMPASS AT CHANCERY,1.32405247986574,103.839256216343,103.839256216343,307512,CHANCERY HILL ROAD,THE COMPASS AT CHANCERY,28660.799456289,34032.5138564706
11 NOVENA RISE SINGAPORE 307516,11,NIL,1.32456844739604,103.84407811019,103.84407811019,307516,NOVENA RISE,11 NOVENA RISE SINGAPORE 307516,29197.4276223211,34089.5687030982
6 SWISS COTTAGE ESTATE SINGAPORE 307518,6,NIL,1.32015941573674,103.831314633911,103.831314633911,307518,SWISS COTTAGE ESTATE,6 SWISS COTTAGE ESTATE SINGAPORE 307518,27776.9806577526,33602.0381123815
5 SWISS COTTAGE ESTATE SINGAPORE 307519,5,NIL,1.32033883091361,103.830662042237,103.830662042237,307519,SWISS COTTAGE ESTATE,5 SWISS COTTAGE ESTATE SINGAPORE 307519,27704.3536599344,33621.8769898973
4 SWISS COTTAGE ESTATE SINGAPORE 307520,4,NIL,1.32067378139596,103.831114393956,103.831114393956,307520,SWISS COTTAGE ESTATE,4 SWISS COTTAGE ESTATE SINGAPORE 307520,27754.6959758131,33658.9140449576
3 SWISS COTTAGE ESTATE SINGAPORE 307521,3,NIL,1.32106059824814,103.830731555776,103.830731555776,307521,SWISS COTTAGE ESTATE,3 SWISS COTTAGE ESTATE SINGAPORE 307521,27712.089914429,33701.68630784
2 SWISS COTTAGE ESTATE SINGAPORE 307522,2,NIL,1.32123177391908,103.831390310285,103.831390310285,307522,SWISS COTTAGE ESTATE,2 SWISS COTTAGE ESTATE SINGAPORE 307522,27785.4027847582,33720.6139677055
41 THOMSON ROAD KARTAR APARTMENTS SINGAPORE 307582,41,KARTAR APARTMENTS,1.314922413126,103.844843392551,103.844843392551,307582,THOMSON ROAD,KARTAR APARTMENTS,29282.6007901942,33022.960128298
43 THOMSON ROAD KARTAR APARTMENTS SINGAPORE 307583,43,KARTAR APARTMENTS,1.31492241285227,103.844843392551,103.844843392551,307583,THOMSON ROAD,KARTAR APARTMENTS,29282.6007901942,33022.96009803
45 THOMSON ROAD THE SINGAPORE THOMSON ROAD BAPTIST CHURCH SINGAPORE 307584,45,THE SINGAPORE THOMSON ROAD BAPTIST CHURCH,1.31505783722664,103.844561555363,103.844561555363,307584,THOMSON ROAD,THE SINGAPORE THOMSON ROAD BAPTIST CHURCH,29251.2349564396,33037.9344868101
68 THOMSON ROAD SINGAPORE 307587,68,NIL,1.31584019464889,103.845170783901,103.845170783901,307587,THOMSON ROAD,68 THOMSON ROAD SINGAPORE 307587,29319.0358150573,33124.4438650925
70 THOMSON ROAD SINGAPORE 307588,70,NIL,1.31589240602367,103.84514998364,103.84514998364,307588,THOMSON ROAD,70 THOMSON ROAD SINGAPORE 307588,29316.7209196631,33130.2171197701
72 THOMSON ROAD SINGAPORE 307589,72,NIL,1.31596010793385,103.845131722864,103.845131722864,307589,THOMSON ROAD,72 THOMSON ROAD SINGAPORE 307589,29314.6886364324,33137.7032396477
74 THOMSON ROAD SINGAPORE 307590,74,NIL,1.31604968917205,103.845144249554,103.845144249554,307590,THOMSON ROAD,74 THOMSON ROAD SINGAPORE 307590,29316.0826889584,33147.6086794622
101 THOMSON ROAD CONSULATE OF THE REPUBLIC OF VANUATU SINGAPORE 307591,101,CONSULATE OF THE REPUBLIC OF VANUATU,1.31742800767635,103.843670754851,103.843670754851,307591,THOMSON ROAD,CONSULATE OF THE REPUBLIC OF VANUATU,29152.0963527551,33300.0153326001
104 THOMSON ROAD SINGAPORE 307592,104,NIL,1.31678325621902,103.844860029526,103.844860029526,307592,THOMSON ROAD,104 THOMSON ROAD SINGAPORE 307592,29284.4513747189,33228.7226080392
106 THOMSON ROAD SINGAPORE 307593,106,NIL,1.31683877617053,103.844845805035,103.844845805035,307593,THOMSON ROAD,106 THOMSON ROAD SINGAPORE 307593,29282.868298634,33234.8617118374
108 THOMSON ROAD SINGAPORE 307595,108,NIL,1.31689157498079,103.844823368026,103.844823368026,307595,THOMSON ROAD,108 THOMSON ROAD SINGAPORE 307595,29280.371250513,33240.699921608
112 THOMSON ROAD SINGAPORE 307596,112,NIL,1.31700296070187,103.844774597199,103.844774597199,307596,THOMSON ROAD,112 THOMSON ROAD SINGAPORE 307596,29274.943474601,33253.0163576659
150 THOMSON ROAD THOMSON EURO-ASIA SINGAPORE 307605,150,THOMSON EURO-ASIA,1.31805872665983,103.844682051372,103.844682051372,307605,THOMSON ROAD,THOMSON EURO-ASIA,29264.6434916183,33369.7574888896
151 THOMSON ROAD GOLDHILL SHOPPING CENTRE SINGAPORE 307606,151,GOLDHILL SHOPPING CENTRE,1.31817016822095,103.843888946132,103.843888946132,307606,THOMSON ROAD,GOLDHILL SHOPPING CENTRE,29176.37857028,33382.0797364004
153 THOMSON ROAD GOLDHILL SHOPPING CENTRE SINGAPORE 307607,153,GOLDHILL SHOPPING CENTRE,1.31815371523279,103.843823557128,103.843823557128,307607,THOMSON ROAD,GOLDHILL SHOPPING CENTRE,29169.1014205636,33380.2604187038
155 THOMSON ROAD GOLDHILL SHOPPING CENTRE SINGAPORE 307608,155,GOLDHILL SHOPPING CENTRE,1.31813177823107,103.843769066076,103.843769066076,307608,THOMSON ROAD,GOLDHILL SHOPPING CENTRE,29163.0371089531,33377.8347122204
157 THOMSON ROAD GOLDHILL SHOPPING CENTRE SINGAPORE 307610,157,GOLDHILL SHOPPING CENTRE,1.31812080967303,103.843722748687,103.843722748687,307610,THOMSON ROAD,GOLDHILL SHOPPING CENTRE,29157.8824410588,33376.6218438447
159 THOMSON ROAD GOLDHILL SHOPPING CENTRE SINGAPORE 307612,159,GOLDHILL SHOPPING CENTRE,1.31809613038966,103.843673706613,103.843673706613,307612,THOMSON ROAD,GOLDHILL SHOPPING CENTRE,29152.424548503,33373.8929127008
161 THOMSON ROAD GOLDHILL SHOPPING CENTRE SINGAPORE 307614,161,GOLDHILL SHOPPING CENTRE,1.31807967763554,103.843616491228,103.843616491228,307614,THOMSON ROAD,GOLDHILL SHOPPING CENTRE,29146.0570425,33372.0736252721
163 THOMSON ROAD GOLDHILL SHOPPING CENTRE SINGAPORE 307616,163,GOLDHILL SHOPPING CENTRE,1.31805225612716,103.843559275528,103.843559275528,307616,THOMSON ROAD,GOLDHILL SHOPPING CENTRE,29139.689506229,33369.0414694659
165 THOMSON ROAD GOLDHILL SHOPPING CENTRE SINGAPORE 307618,165,GOLDHILL SHOPPING CENTRE,1.31804128757636,103.843510233784,103.843510233784,307618,THOMSON ROAD,GOLDHILL SHOPPING CENTRE,29134.2316439413,33367.8286010902
167 THOMSON ROAD GOLDHILL SHOPPING CENTRE SINGAPORE 307619,167,GOLDHILL SHOPPING CENTRE,1.3180248348073,103.84345574276,103.84345574276,307619,THOMSON ROAD,GOLDHILL SHOPPING CENTRE,29128.1673323317,33366.0093136616
169 THOMSON ROAD GOLDHILL SHOPPING CENTRE SINGAPORE 307621,169,GOLDHILL SHOPPING CENTRE,1.3180028975126,103.843403976071,103.843403976071,307621,THOMSON ROAD,GOLDHILL SHOPPING CENTRE,29122.4062151155,33363.5835769102
171 THOMSON ROAD GOLDHILL SHOPPING CENTRE SINGAPORE 307622,171,GOLDHILL SHOPPING CENTRE,1.31799467123747,103.843349485081,103.843349485081,307622,THOMSON ROAD,GOLDHILL SHOPPING CENTRE,29116.3419035049,33362.6739331968
173 THOMSON ROAD GOLDHILL SHOPPING CENTRE SINGAPORE 307623,173,GOLDHILL SHOPPING CENTRE,1.31796450747714,103.843289545017,103.843289545017,307623,THOMSON ROAD,GOLDHILL SHOPPING CENTRE,29109.6711728415,33359.3385527302
175 THOMSON ROAD GOLDHILL SHOPPING CENTRE SINGAPORE 307624,175,GOLDHILL SHOPPING CENTRE,1.3182579188666,103.8436110427,103.8436110427,307624,THOMSON ROAD,GOLDHILL SHOPPING CENTRE,29145.4505931782,33391.7826228682
177 THOMSON ROAD GOLDHILL SHOPPING CENTRE SINGAPORE 307625,177,GOLDHILL SHOPPING CENTRE,1.3183264731724,103.843591971389,103.843591971389,307625,THOMSON ROAD,GOLDHILL SHOPPING CENTRE,29143.3281113561,33399.3629972469
179 THOMSON ROAD GOLDHILL SHOPPING CENTRE SINGAPORE 307626,179,GOLDHILL SHOPPING CENTRE,1.31837309021209,103.843581073332,103.843581073332,307626,THOMSON ROAD,GOLDHILL SHOPPING CENTRE,29142.1152429804,33404.5176651422
181 THOMSON ROAD GOLDHILL SHOPPING CENTRE SINGAPORE 307627,181,GOLDHILL SHOPPING CENTRE,1.31843341801011,103.843564726343,103.843564726343,307627,THOMSON ROAD,GOLDHILL SHOPPING CENTRE,29140.2959555509,33411.1883958057
183 THOMSON ROAD GOLDHILL SHOPPING CENTRE SINGAPORE 307628,183,GOLDHILL SHOPPING CENTRE,1.3184608400474,103.84349388798,103.84349388798,307628,THOMSON ROAD,GOLDHILL SHOPPING CENTRE,29132.4123262446,33414.22055161
185 THOMSON ROAD GOLDHILL SHOPPING CENTRE SINGAPORE 307629,185,GOLDHILL SHOPPING CENTRE,1.31851294166699,103.843466642707,103.843466642707,307629,THOMSON ROAD,GOLDHILL SHOPPING CENTRE,29129.3801704394,33419.9816688281
187 THOMSON ROAD GOLDHILL SHOPPING CENTRE SINGAPORE 307630,187,GOLDHILL SHOPPING CENTRE,1.3185787537149,103.843447571378,103.843447571378,307630,THOMSON ROAD,GOLDHILL SHOPPING CENTRE,29127.2576886173,33427.2588185444
189 THOMSON ROAD GOLDHILL SHOPPING CENTRE SINGAPORE 307631,189,GOLDHILL SHOPPING CENTRE,1.31861714422427,103.843444846903,103.843444846903,307631,THOMSON ROAD,GOLDHILL SHOPPING CENTRE,29126.9544639559,33431.5038427245
191 THOMSON ROAD GOLDHILL SHOPPING CENTRE SINGAPORE 307632,191,GOLDHILL SHOPPING CENTRE,1.3186719878373,103.843414877008,103.843414877008,307632,THOMSON ROAD,GOLDHILL SHOPPING CENTRE,29123.6190834902,33437.568154335
193 THOMSON ROAD GOLDHILL SHOPPING CENTRE SINGAPORE 307633,193,GOLDHILL SHOPPING CENTRE,1.31817291244617,103.843349485793,103.843349485793,307633,THOMSON ROAD,GOLDHILL SHOPPING CENTRE,29116.3419035049,33382.3829307929
195 THOMSON ROAD GOLDHILL SHOPPING CENTRE SINGAPORE 307634,195,GOLDHILL SHOPPING CENTRE,1.31823324057151,103.843319516195,103.843319516195,307634,THOMSON ROAD,GOLDHILL SHOPPING CENTRE,29113.0065533072,33389.0536917243
197 THOMSON ROAD GOLDHILL SHOPPING CENTRE SINGAPORE 307635,197,GOLDHILL SHOPPING CENTRE,1.31828259959304,103.843308618145,103.843308618145,307635,THOMSON ROAD,GOLDHILL SHOPPING CENTRE,29111.7936849324,33394.5115540121
199 THOMSON ROAD GOLDHILL SHOPPING CENTRE SINGAPORE 307636,199,GOLDHILL SHOPPING CENTRE,1.31834566964598,103.843292271161,103.843292271161,307636,THOMSON ROAD,GOLDHILL SHOPPING CENTRE,29109.9743975028,33401.4855093379
201 THOMSON ROAD GOLDHILL SHOPPING CENTRE SINGAPORE 307637,201,GOLDHILL SHOPPING CENTRE,1.31840599728857,103.843314067624,103.843314067624,307637,THOMSON ROAD,GOLDHILL SHOPPING CENTRE,29112.4001039853,33408.1562400013
203 THOMSON ROAD GOLDHILL SHOPPING CENTRE SINGAPORE 307638,203,GOLDHILL SHOPPING CENTRE,1.318463583058,103.843308618865,103.843308618865,307638,THOMSON ROAD,GOLDHILL SHOPPING CENTRE,29111.7936849324,33414.5237762704
205 THOMSON ROAD GOLDHILL SHOPPING CENTRE SINGAPORE 307639,205,GOLDHILL SHOPPING CENTRE,1.31851568432505,103.843300445454,103.843300445454,307639,THOMSON ROAD,GOLDHILL SHOPPING CENTRE,29110.8840412172,33420.2848632205
207 THOMSON ROAD GOLDHILL SHOPPING CENTRE SINGAPORE 307640,207,GOLDHILL SHOPPING CENTRE,1.31853704959469,103.84319736189,103.84319736189,307640,THOMSON ROAD,GOLDHILL SHOPPING CENTRE,29099.4118397608,33422.6472793501
250 THOMSON ROAD CITIBANK NOVENA SMRT STATION SINGAPORE 307642,250,CITIBANK NOVENA SMRT STATION,1.32057815836295,103.843817845501,103.843817845501,307642,THOMSON ROAD,CITIBANK NOVENA SMRT STATION,29168.4646427222,33648.3428911082
273 THOMSON ROAD NOVENA GARDENS SINGAPORE 307644,273,NOVENA GARDENS,1.3204789314891,103.841994460759,103.841994460759,307644,THOMSON ROAD,NOVENA GARDENS,28965.5399680613,33637.3701113835
275 THOMSON ROAD NOVENA REGENCY SINGAPORE 307645,275,NOVENA REGENCY,1.32114652933088,103.841550400671,103.841550400671,307645,THOMSON ROAD,NOVENA REGENCY,28916.1202203268,33711.1894861516
297 THOMSON ROAD SEVENTH-DAY ADVENTIST CHINESE CHURCH SINGAPORE 307646,297,SEVENTH-DAY ADVENTIST CHINESE CHURCH,1.32165843946467,103.841309180638,103.841309180638,307646,THOMSON ROAD,SEVENTH-DAY ADVENTIST CHINESE CHURCH,28889.2746375287,33767.7937938403
299 THOMSON ROAD SAN YU ADVENTIST SCHOOL SINGAPORE 307652,299,SAN YU ADVENTIST SCHOOL,1.32183256787303,103.841037677897,103.841037677897,307652,THOMSON ROAD,SAN YU ADVENTIST SCHOOL,28859.0590174226,33787.0479241796
300 THOMSON ROAD NOVENA CHURCH SINGAPORE 307653,300,NOVENA CHURCH,1.32190879159509,103.842687109323,103.842687109323,307653,THOMSON ROAD,NOVENA CHURCH,29042.624319966,33795.4769825526
304 THOMSON ROAD ENG AUN MANSION SINGAPORE 307654,304,ENG AUN MANSION,1.32316071397544,103.842053022507,103.842053022507,307654,THOMSON ROAD,ENG AUN MANSION,28972.056271472,33933.9078784958
306 THOMSON ROAD ENG AUN MANSION SINGAPORE 307655,306,ENG AUN MANSION,1.32323179764449,103.842009808269,103.842009808269,307655,THOMSON ROAD,ENG AUN MANSION,28967.2469310034,33941.7679290436
308 THOMSON ROAD ENG AUN MANSION SINGAPORE 307656,308,ENG AUN MANSION,1.32329665525145,103.842046006326,103.842046006326,307656,THOMSON ROAD,ENG AUN MANSION,28971.2753877603,33948.9395645689
310 THOMSON ROAD ENG AUN MANSION SINGAPORE 307657,310,ENG AUN MANSION,1.32335682465816,103.842075341921,103.842075341921,307657,THOMSON ROAD,ENG AUN MANSION,28974.5401227521,33955.5928003378
312 THOMSON ROAD ENG AUN MANSION SINGAPORE 307658,312,ENG AUN MANSION,1.3234351840342,103.842064588887,103.842064588887,307658,THOMSON ROAD,ENG AUN MANSION,28973.3433872117,33964.2573738936
314 THOMSON ROAD ENG AUN MANSION SINGAPORE 307659,314,ENG AUN MANSION,1.32349155492474,103.842072489385,103.842072489385,307659,THOMSON ROAD,ENG AUN MANSION,28974.2226116024,33970.4905808512
316 THOMSON ROAD ENG AUN MANSION SINGAPORE 307660,316,ENG AUN MANSION,1.32355609971353,103.84209191209,103.84209191209,307660,THOMSON ROAD,ENG AUN MANSION,28976.3841391234,33977.627620073
318 THOMSON ROAD ENG AUN MANSION SINGAPORE 307662,318,ENG AUN MANSION,1.32362532410845,103.842071438674,103.842071438674,307662,THOMSON ROAD,ENG AUN MANSION,28974.1056258455,33985.2820904739
320 THOMSON ROAD ENG AUN MANSION SINGAPORE 307663,320,ENG AUN MANSION,1.32368662646052,103.84211054576,103.84211054576,307663,THOMSON ROAD,ENG AUN MANSION,28978.4578289567,33992.0606054291
322 THOMSON ROAD ENG AUN MANSION SINGAPORE 307665,322,ENG AUN MANSION,1.32375032517822,103.842119363653,103.842119363653,307665,THOMSON ROAD,ENG AUN MANSION,28979.4391472563,33999.1040863115
323 THOMSON ROAD THOMSON VALE SINGAPORE 307666,323,THOMSON VALE,1.32398367225831,103.841435371237,103.841435371237,307666,THOMSON ROAD,THOMSON VALE,28903.3175593782,34024.9061501026
323A THOMSON ROAD SINGAPORE 307667,323A,NIL,1.32403932482772,103.841204810854,103.841204810854,307667,THOMSON ROAD,323A THOMSON ROAD SINGAPORE 307667,28877.6584815411,34031.0598430689
323B THOMSON ROAD THE THOMSON DUPLEX SINGAPORE 307668,323B,THE THOMSON DUPLEX,1.32407439907988,103.841021984837,103.841021984837,307668,THOMSON ROAD,THE THOMSON DUPLEX,28857.3117677951,34034.9381100908
323C THOMSON ROAD ALEGRIA SINGAPORE 307669,323C,ALEGRIA,1.32430300605838,103.841018068843,103.841018068843,307669,THOMSON ROAD,ALEGRIA,28856.8758785613,34060.2162956204
323D THOMSON ROAD SINGAPORE 307670,323D,NIL,1.32438876659106,103.841275654952,103.841275654952,307670,THOMSON ROAD,323D THOMSON ROAD SINGAPORE 307670,28885.542595136,34069.6993457228
323E THOMSON ROAD SINGAPORE 307671,323E,NIL,1.32438843293043,103.841520400626,103.841520400626,307671,THOMSON ROAD,323E THOMSON ROAD SINGAPORE 307671,28912.7803299315,34069.6625398546
324 THOMSON ROAD SHELL THOMSON NOVENA SINGAPORE 307672,324,SHELL THOMSON NOVENA,1.32419151041549,103.842192726676,103.842192726676,307672,THOMSON ROAD,SHELL THOMSON NOVENA,28987.60354238,34047.888115583
327 THOMSON ROAD SPC THOMSON SINGAPORE 307673,327,SPC THOMSON,1.32477964243487,103.841609695642,103.841609695642,307673,THOMSON ROAD,SPC THOMSON,28922.7178235417,34112.9205130711
329 THOMSON ROAD AMANINDA SINGAPORE 307674,329,AMANINDA,1.32462490510501,103.841341512332,103.841341512332,307674,THOMSON ROAD,AMANINDA,28892.8717755172,34095.8103548232
333 THOMSON ROAD PEAK RESIDENCE SINGAPORE 307675,333,PEAK RESIDENCE,1.32534460429599,103.840724426138,103.840724426138,307675,THOMSON ROAD,PEAK RESIDENCE,28824.1960510975,34175.3907862734
337 THOMSON ROAD PEAK RESIDENCE SINGAPORE 307676,337,PEAK RESIDENCE,1.32534460429598,103.840724426682,103.840724426682,307676,THOMSON ROAD,PEAK RESIDENCE,28824.1961116334,34175.3907862734
339 THOMSON ROAD 24-HR FAMILY WALK-IN-CLINIC (THOMSON MEDICAL CENTRE) SINGAPORE 307677,339,24-HR FAMILY WALK-IN-CLINIC (THOMSON MEDICAL CENTRE),1.32536165247809,103.841475039069,103.841475039069,307677,THOMSON ROAD,24-HR FAMILY WALK-IN-CLINIC (THOMSON MEDICAL CENTRE),28907.7316907831,34177.2761487104
341 THOMSON ROAD THOMSON MEDICAL CENTRE SINGAPORE 307678,341,THOMSON MEDICAL CENTRE,1.32536406305814,103.841448450064,103.841448450064,307678,THOMSON ROAD,THOMSON MEDICAL CENTRE,28904.7726018913,34177.5426885765
373 THOMSON ROAD THOMSON EXCHANGE SINGAPORE 307679,373,THOMSON EXCHANGE,1.32646207167239,103.84140896596,103.84140896596,307679,THOMSON ROAD,THOMSON EXCHANGE,28900.378023603,34298.9548355825
130 THOMSON ROAD BIRMINGHAM MANSIONS SINGAPORE 307682,130,BIRMINGHAM MANSIONS,1.3177326204316,103.844909211296,103.844909211296,307682,THOMSON ROAD,BIRMINGHAM MANSIONS,29289.9243407305,33333.6984529197
238 THOMSON ROAD DBS NOVENA MRT STATION SINGAPORE 307683,238,DBS NOVENA MRT STATION,1.32021100706836,103.843656761867,103.843656761867,307683,THOMSON ROAD,DBS NOVENA MRT STATION,29150.5377937378,33607.7451104429
238A THOMSON ROAD MDA CUSTOMER & LICENSING SERVICES (BROADCASTING) SINGAPORE 307684,238A,MDA CUSTOMER & LICENSING SERVICES (BROADCASTING),1.31983835175195,103.844029230613,103.844029230613,307684,THOMSON ROAD,MDA CUSTOMER & LICENSING SERVICES (BROADCASTING),29191.9900698503,33566.5389735736
238B THOMSON ROAD CENTRAL PROVIDENT FUND BOARD (CPF) SINGAPORE 307685,238B,CENTRAL PROVIDENT FUND BOARD (CPF),1.3193876785315,103.844120677616,103.844120677616,307685,THOMSON ROAD,CENTRAL PROVIDENT FUND BOARD (CPF),29202.1674372312,33516.7058862541
329A THOMSON ROAD AMANINDA SINGAPORE 307686,329A,AMANINDA,1.32461344987091,103.841103352994,103.841103352994,307686,THOMSON ROAD,AMANINDA,28866.3670404833,34094.5436094366
331 THOMSON ROAD AMANINDA SINGAPORE 307687,331,AMANINDA,1.32478729402026,103.840864419636,103.840864419636,307687,THOMSON ROAD,AMANINDA,28839.7761022327,34113.7663216088
277 THOMSON ROAD NOVENA REGENCY SINGAPORE 307689,277,NOVENA REGENCY,1.32085824174431,103.841790678702,103.841790678702,307689,THOMSON ROAD,NOVENA REGENCY,28942.8608942935,33679.3122142758
279 THOMSON ROAD NOVENA REGENCY SINGAPORE 307690,279,NOVENA REGENCY,1.32141037498987,103.841399228185,103.841399228185,307690,THOMSON ROAD,NOVENA REGENCY,28899.2961247936,33740.3641297612
335 THOMSON ROAD PEAK RESIDENCE SINGAPORE 307691,335,PEAK RESIDENCE,1.32534460429598,103.840724426682,103.840724426682,307691,THOMSON ROAD,PEAK RESIDENCE,28824.1961116334,34175.3907862734
1 TAN SIM BOH ROAD SINGAPORE 307701,1,NIL,1.32648766642133,103.839877559972,103.839877559972,307701,TAN SIM BOH ROAD,1 TAN SIM BOH ROAD SINGAPORE 307701,28729.9480574187,34301.7844683081
2 TAN SIM BOH ROAD SINGAPORE 307702,2,NIL,1.32614282848303,103.84013117998,103.84013117998,307702,TAN SIM BOH ROAD,2 TAN SIM BOH ROAD SINGAPORE 307702,28758.1734970585,34263.6541336756
3 TAN SIM BOH ROAD SINGAPORE 307703,3,NIL,1.32657027732562,103.840099028341,103.840099028341,307703,TAN SIM BOH ROAD,3 TAN SIM BOH ROAD SINGAPORE 307703,28754.5952160237,34310.9192247223
5 TAN SIM BOH ROAD SINGAPORE 307704,5,NIL,1.32660330492986,103.84026551779,103.84026551779,307704,TAN SIM BOH ROAD,5 TAN SIM BOH ROAD SINGAPORE 307704,28773.1237925245,34314.5712991003
6 TAN SIM BOH ROAD SINGAPORE 307705,6,NIL,1.32614742711584,103.840354715655,103.840354715655,307705,TAN SIM BOH ROAD,6 TAN SIM BOH ROAD SINGAPORE 307705,28783.0507528754,34264.1626963392
7 TAN SIM BOH ROAD SINGAPORE 307706,7,NIL,1.32661194631306,103.840393951709,103.840393951709,307706,TAN SIM BOH ROAD,7 TAN SIM BOH ROAD SINGAPORE 307706,28787.4171819389,34315.5268593468
10 TAN SIM BOH ROAD SINGAPORE 307707,10,NIL,1.3262610807163,103.840741278752,103.840741278752,307707,TAN SIM BOH ROAD,10 TAN SIM BOH ROAD SINGAPORE 307707,28826.0712737609,34276.7300539818
12 TAN SIM BOH ROAD SINGAPORE 307708,12,NIL,1.32603288425201,103.840774703439,103.840774703439,307708,TAN SIM BOH ROAD,12 TAN SIM BOH ROAD SINGAPORE 307708,28829.7911786921,34251.4972704276
14 TAN SIM BOH ROAD SINGAPORE 307709,14,NIL,1.32602688367048,103.840619189894,103.840619189894,307709,TAN SIM BOH ROAD,14 TAN SIM BOH ROAD SINGAPORE 307709,28812.4840969425,34250.8337054215
16 TAN SIM BOH ROAD SINGAPORE 307710,16,NIL,1.32596618105413,103.840483329597,103.840483329597,307710,TAN SIM BOH ROAD,16 TAN SIM BOH ROAD SINGAPORE 307710,28797.3642402319,34244.1214773525
17 TAN SIM BOH ROAD SINGAPORE 307711,17,NIL,1.32621065008647,103.84109337162,103.84109337162,307711,TAN SIM BOH ROAD,17 TAN SIM BOH ROAD SINGAPORE 307711,28865.2556606578,34271.1538136099
18 TAN SIM BOH ROAD SINGAPORE 307712,18,NIL,1.3259456930473,103.840263380146,103.840263380146,307712,TAN SIM BOH ROAD,18 TAN SIM BOH ROAD SINGAPORE 307712,28772.8860980477,34241.8559490386
19 TAN SIM BOH ROAD SINGAPORE 307713,19,NIL,1.32605344761157,103.841043229682,103.841043229682,307713,TAN SIM BOH ROAD,19 TAN SIM BOH ROAD SINGAPORE 307713,28859.6754249111,34253.771152705
21 TAN SIM BOH ROAD SINGAPORE 307714,21,NIL,1.32615487569743,103.841329677118,103.841329677118,307714,TAN SIM BOH ROAD,21 TAN SIM BOH ROAD SINGAPORE 307714,28891.5540891141,34264.9866513908
23 TAN SIM BOH ROAD SINGAPORE 307715,23,NIL,1.32590962889427,103.841462950244,103.841462950244,307715,TAN SIM BOH ROAD,23 TAN SIM BOH ROAD SINGAPORE 307715,28906.3861275669,34237.8685659356
25 TAN SIM BOH ROAD SINGAPORE 307716,25,NIL,1.32574430389303,103.841261815236,103.841261815236,307716,TAN SIM BOH ROAD,25 TAN SIM BOH ROAD SINGAPORE 307716,28884.0018942291,34219.5877026133
27 TAN SIM BOH ROAD SINGAPORE 307717,27,NIL,1.32570410292204,103.841091673196,103.841091673196,307717,TAN SIM BOH ROAD,27 TAN SIM BOH ROAD SINGAPORE 307717,28865.0668187067,34215.1424254533
29 TAN SIM BOH ROAD SINGAPORE 307718,29,NIL,1.32558629639613,103.840854150127,103.840854150127,307718,TAN SIM BOH ROAD,29 TAN SIM BOH ROAD SINGAPORE 307718,28838.6329410234,34202.1159024965
33 TAN SIM BOH ROAD SINGAPORE 307719,33,NIL,1.32558678355085,103.840610941261,103.840610941261,307719,TAN SIM BOH ROAD,33 TAN SIM BOH ROAD SINGAPORE 307719,28811.5662506036,34202.1696887035
35 TAN SIM BOH ROAD SINGAPORE 307720,35,NIL,1.3255172663694,103.840411524397,103.840411524397,307720,TAN SIM BOH ROAD,35 TAN SIM BOH ROAD SINGAPORE 307720,28789.3731898507,34194.4827710222
8 TAN SIM BOH ROAD SINGAPORE 307721,8,NIL,1.32622399080362,103.840530506453,103.840530506453,307721,TAN SIM BOH ROAD,8 TAN SIM BOH ROAD SINGAPORE 307721,28802.6144641517,34272.6287724562
8A TAN SIM BOH ROAD SINGAPORE 307722,8A,NIL,1.32624084981072,103.840599935827,103.840599935827,307722,TAN SIM BOH ROAD,8A TAN SIM BOH ROAD SINGAPORE 307722,28810.3412447665,34274.4929775726
9 TAN SIM BOH ROAD SINGAPORE 307723,9,NIL,1.32662810622897,103.840456838477,103.840456838477,307723,TAN SIM BOH ROAD,9 TAN SIM BOH ROAD SINGAPORE 307723,28794.4158359384,34317.3137600347
21A TAN SIM BOH ROAD SINGAPORE 307724,21A,NIL,1.3261347820159,103.841426215956,103.841426215956,307724,TAN SIM BOH ROAD,21A TAN SIM BOH ROAD SINGAPORE 307724,28902.2978915423,34262.7648300473
15 TAN SIM BOH ROAD SINGAPORE 307725,15,NIL,1.32626871463926,103.841077596476,103.841077596476,307725,TAN SIM BOH ROAD,15 TAN SIM BOH ROAD SINGAPORE 307725,28863.5000267979,34277.5742885843
23A TAN SIM BOH ROAD SINGAPORE 307726,23A,NIL,1.3257391115502,103.841483419556,103.841483419556,307726,TAN SIM BOH ROAD,23A TAN SIM BOH ROAD SINGAPORE 307726,28908.664217094,34219.0136400349
1A TAN SIM BOH ROAD SINGAPORE 307727,1A,NIL,1.326499871663,103.839965643784,103.839965643784,307727,TAN SIM BOH ROAD,1A TAN SIM BOH ROAD SINGAPORE 307727,28739.7508887695,34303.134087434
20 TAN SIM BOH ROAD SINGAPORE 307728,20,NIL,1.32562230419994,103.840143709772,103.840143709772,307728,TAN SIM BOH ROAD,20 TAN SIM BOH ROAD SINGAPORE 307728,28759.5680944081,34206.0972320028
1 SURREY ROAD SUITES @ NEWTON SINGAPORE 307740,1,SUITES @ NEWTON,1.31640035574617,103.841671833933,103.841671833933,307740,SURREY ROAD,SUITES @ NEWTON,28929.6362976516,33186.3820271399
1A SURREY ROAD METRORESIDENCES NEWTON SINGAPORE 307741,1A,METRORESIDENCES NEWTON,1.31632883496038,103.84194519778,103.84194519778,307741,SURREY ROAD,METRORESIDENCES NEWTON,28960.0590718379,33178.473729426
2 SURREY ROAD SURREY POINT SINGAPORE 307742,2,SURREY POINT,1.31599895511718,103.84158873881,103.84158873881,307742,SURREY ROAD,SURREY POINT,28920.3887627302,33141.9971768893
3 SURREY ROAD THE SENTINEL SINGAPORE 307743,3,THE SENTINEL,1.31627112423596,103.842144611057,103.842144611057,307743,SURREY ROAD,THE SENTINEL,28982.251860179,33172.0924514923
6 SURREY ROAD SUITES @ SURREY SINGAPORE 307745,6,SUITES @ SURREY,1.31595167560923,103.841854612829,103.841854612829,307745,SURREY ROAD,SUITES @ SURREY,28949.9779869132,33136.7693512775
7 SURREY ROAD CASA MELWANI SINGAPORE 307746,7,CASA MELWANI,1.31625177792643,103.842584165108,103.842584165108,307746,SURREY ROAD,CASA MELWANI,29031.16997662,33169.9534130823
9 SURREY ROAD VISIN APTS SINGAPORE 307747,9,VISIN APTS,1.31604495620101,103.84274445446,103.84274445446,307747,SURREY ROAD,VISIN APTS,29049.0087155029,33147.0841958411
10 SURREY ROAD SINGAPORE 307748,10,NIL,1.31588022074112,103.842059534031,103.842059534031,307748,SURREY ROAD,10 SURREY ROAD SINGAPORE 307748,28972.7837624606,33128.8683178797
12 SURREY ROAD SURREY COURT SINGAPORE 307750,12,SURREY COURT,1.31580176169088,103.842308803684,103.842308803684,307750,SURREY ROAD,SURREY COURT,29000.5250959694,33120.1928175837
21 SURREY ROAD SURREY 21 SINGAPORE 307754,21,SURREY 21,1.31581959958682,103.843558404546,103.843558404546,307754,SURREY ROAD,SURREY 21,29139.5935869887,33122.1657755654
56 SURREY ROAD SINGAPORE 307758,56,NIL,1.31565993104569,103.843110658051,103.843110658051,307758,SURREY ROAD,56 SURREY ROAD SINGAPORE 307758,29089.7637988795,33104.5102487877
58 SURREY ROAD SINGAPORE 307759,58,NIL,1.31565912026187,103.843107310059,103.843107310059,307759,SURREY ROAD,58 SURREY ROAD SINGAPORE 307759,29089.3911999995,33104.4205950201
60 SURREY ROAD SINGAPORE 307760,60,NIL,1.31565912026187,103.843107310059,103.843107310059,307760,SURREY ROAD,60 SURREY ROAD SINGAPORE 307760,29089.3911999995,33104.4205950201
28 SURREY ROAD THE LINCOLN RESIDENCES SINGAPORE 307762,28,THE LINCOLN RESIDENCES,1.31537475902919,103.842399874258,103.842399874258,307762,SURREY ROAD,THE LINCOLN RESIDENCES,29010.6605421929,33072.9770936184
2 SUFFOLK ROAD LUCIDA SINGAPORE 307780,2,LUCIDA,1.31464830253379,103.844819093226,103.844819093226,307780,SUFFOLK ROAD,LUCIDA,29279.896648529,32992.6503747627
3 SUFFOLK ROAD SUFFOLK PREMIER SINGAPORE 307781,3,SUFFOLK PREMIER,1.31424399792716,103.844686730014,103.844686730014,307781,SUFFOLK ROAD,SUFFOLK PREMIER,29265.1660986254,32947.9443812035
10 SUFFOLK ROAD TEN @ SUFFOLK SINGAPORE 307786,10,TEN @ SUFFOLK,1.3145899979855,103.844453396673,103.844453396673,307786,SUFFOLK ROAD,TEN @ SUFFOLK,29239.1981662828,32986.2031731587
13 SUFFOLK ROAD THE SPINNAKER SINGAPORE 307788,13,THE SPINNAKER,1.31408342873893,103.843984943567,103.843984943567,307788,SUFFOLK ROAD,THE SPINNAKER,29187.0640765717,32930.1891214196
2 SHREWSBURY ROAD SINGAPORE 307807,2,NIL,1.31835781637666,103.846847982218,103.846847982218,307807,SHREWSBURY ROAD,2 SHREWSBURY ROAD SINGAPORE 307807,29505.6902680183,33402.8304974623
4 SHREWSBURY ROAD SINGAPORE 307808,4,NIL,1.31837206536693,103.84693045035,103.84693045035,307808,SHREWSBURY ROAD,4 SHREWSBURY ROAD SINGAPORE 307808,29514.8681563092,33404.4061276224
6 SHREWSBURY ROAD SINGAPORE 307809,6,NIL,1.31816119021265,103.846890413633,103.846890413633,307809,SHREWSBURY ROAD,6 SHREWSBURY ROAD SINGAPORE 307809,29510.4125880348,33381.0886112731
8 SHREWSBURY ROAD SINGAPORE 307810,8,NIL,1.31808263068444,103.846906735419,103.846906735419,307810,SHREWSBURY ROAD,8 SHREWSBURY ROAD SINGAPORE 307810,29512.2290908089,33372.4019118231
10 SHREWSBURY ROAD LA NOUVELLE SINGAPORE 307811,10,LA NOUVELLE,1.31793346916031,103.846918251869,103.846918251869,307811,SHREWSBURY ROAD,LA NOUVELLE,29513.5108491154,33355.9084032066
29 SHREWSBURY ROAD SINGAPORE 307813,29,NIL,1.31847071937496,103.847206858581,103.847206858581,307813,SHREWSBURY ROAD,29 SHREWSBURY ROAD SINGAPORE 307813,29545.6296292329,33415.3149510976
31 SHREWSBURY ROAD SINGAPORE 307814,31,NIL,1.31842326004737,103.847217098118,103.847217098118,307814,SHREWSBURY ROAD,31 SHREWSBURY ROAD SINGAPORE 307814,29546.7692188201,33410.0671486165
33 SHREWSBURY ROAD SINGAPORE 307815,33,NIL,1.31836160987151,103.84722466299,103.84722466299,307815,SHREWSBURY ROAD,33 SHREWSBURY ROAD SINGAPORE 307815,29547.611153055,33403.2501933239
35 SHREWSBURY ROAD SINGAPORE 307816,35,NIL,1.31831439334255,103.847235331158,103.847235331158,307816,SHREWSBURY ROAD,35 SHREWSBURY ROAD SINGAPORE 307816,29548.7984449845,33398.0292385444
37 SHREWSBURY ROAD SINGAPORE 307817,37,NIL,1.31825321315264,103.847245282054,103.847245282054,307817,SHREWSBURY ROAD,37 SHREWSBURY ROAD SINGAPORE 307817,29549.905920241,33391.2642533798
38 SHREWSBURY ROAD IKIGAI SINGAPORE 307818,38,IKIGAI,1.31790382404123,103.847428354915,103.847428354915,307818,SHREWSBURY ROAD,IKIGAI,29570.28035946,33352.6307135187
39 SHREWSBURY ROAD SINGAPORE 307819,39,NIL,1.31820632153513,103.847257620411,103.847257620411,307819,SHREWSBURY ROAD,39 SHREWSBURY ROAD SINGAPORE 307819,29551.2790878583,33386.0792266969
41 SHREWSBURY ROAD SINGAPORE 307821,41,NIL,1.31813362639658,103.847236419408,103.847236419408,307821,SHREWSBURY ROAD,41 SHREWSBURY ROAD SINGAPORE 307821,29548.9196682591,33378.0409582611
41A SHREWSBURY ROAD SINGAPORE 307822,41A,NIL,1.31813362667033,103.84723641968,103.84723641968,307822,SHREWSBURY ROAD,41A SHREWSBURY ROAD SINGAPORE 307822,29548.9196985271,33378.0409885291
45 SHREWSBURY ROAD SINGAPORE 307825,45,NIL,1.3182691989355,103.847477406016,103.847477406016,307825,SHREWSBURY ROAD,45 SHREWSBURY ROAD SINGAPORE 307825,29575.7390389843,33393.0320247002
46 SHREWSBURY ROAD SINGAPORE 307826,46,NIL,1.31794334872832,103.847647040232,103.847647040232,307826,SHREWSBURY ROAD,46 SHREWSBURY ROAD SINGAPORE 307826,29594.6178765921,33357.001289295
47 SHREWSBURY ROAD SINGAPORE 307827,47,NIL,1.31827949877349,103.847557463626,103.847557463626,307827,SHREWSBURY ROAD,47 SHREWSBURY ROAD SINGAPORE 307827,29584.648662135,33394.1709786598
52 SHREWSBURY ROAD SINGAPORE 307829,52,NIL,1.31793515708885,103.847866022001,103.847866022001,307829,SHREWSBURY ROAD,52 SHREWSBURY ROAD SINGAPORE 307829,29618.9884160934,33356.0956409555
54 SHREWSBURY ROAD SINGAPORE 307830,54,NIL,1.31798589201351,103.847977168572,103.847977168572,307830,SHREWSBURY ROAD,54 SHREWSBURY ROAD SINGAPORE 307830,29631.3579119276,33361.7057209332
54A SHREWSBURY ROAD SINGAPORE 307831,54A,NIL,1.31799158127884,103.847977194442,103.847977194442,307831,SHREWSBURY ROAD,54A SHREWSBURY ROAD SINGAPORE 307831,29631.3607873861,33362.3348107059
57 SHREWSBURY ROAD SINGAPORE 307832,57,NIL,1.31835972645152,103.848007190638,103.848007190638,307832,SHREWSBURY ROAD,57 SHREWSBURY ROAD SINGAPORE 307832,29634.6988314344,33403.042433884
58 SHREWSBURY ROAD SINGAPORE 307833,58,NIL,1.31799878752005,103.848078203497,103.848078203497,307833,SHREWSBURY ROAD,58 SHREWSBURY ROAD SINGAPORE 307833,29642.6021046629,33363.1317061819
67 SHREWSBURY ROAD LEONG HWA MONASTERY SINGAPORE 307834,67,LEONG HWA MONASTERY,1.31842170811944,103.848274240901,103.848274240901,307834,SHREWSBURY ROAD,LEONG HWA MONASTERY,29664.4188738428,33409.8962253127
68 SHREWSBURY ROAD SINGAPORE 307835,68,NIL,1.31802306250436,103.848203219473,103.848203219473,307835,SHREWSBURY ROAD,68 SHREWSBURY ROAD SINGAPORE 307835,29656.5151465945,33365.8159920499
70 SHREWSBURY ROAD SINGAPORE 307836,70,NIL,1.31803826708406,103.848280251947,103.848280251947,307836,SHREWSBURY ROAD,70 SHREWSBURY ROAD SINGAPORE 307836,29665.0880989628,33367.4972877409
72 SHREWSBURY ROAD SINGAPORE 307837,72,NIL,1.31806173050694,103.848394266598,103.848394266598,307837,SHREWSBURY ROAD,72 SHREWSBURY ROAD SINGAPORE 307837,29677.7768009529,33370.0918290373
76 SHREWSBURY ROAD SINGAPORE 307838,76,NIL,1.31810259741712,103.848492027954,103.848492027954,307838,SHREWSBURY ROAD,76 SHREWSBURY ROAD SINGAPORE 307838,29688.6566579677,33374.6107482016
80 SHREWSBURY ROAD SINGAPORE 307839,80,NIL,1.31811687993141,103.848633500172,103.848633500172,307839,SHREWSBURY ROAD,80 SHREWSBURY ROAD SINGAPORE 307839,29704.4011247894,33376.1901315935
82 SHREWSBURY ROAD SINGAPORE 307841,82,NIL,1.31816119044121,103.848767372552,103.848767372552,307841,SHREWSBURY ROAD,82 SHREWSBURY ROAD SINGAPORE 307841,29719.2997830752,33381.0898522604
84 SHREWSBURY ROAD SUITES @ SHREWSBURY SINGAPORE 307842,84,SUITES @ SHREWSBURY,1.31819899592367,103.848906082215,103.848906082215,307842,SHREWSBURY ROAD,SUITES @ SHREWSBURY,29734.7367877187,33385.2702845633
88A SHREWSBURY ROAD SINGAPORE 307845,88A,NIL,1.31823833489265,103.849038107601,103.849038107601,307845,SHREWSBURY ROAD,88A SHREWSBURY ROAD SINGAPORE 307845,29749.4298961265,33389.6202781126
90 SHREWSBURY ROAD SINGAPORE 307846,90,NIL,1.31825554181682,103.849155791422,103.849155791422,307846,SHREWSBURY ROAD,90 SHREWSBURY ROAD SINGAPORE 307846,29762.5269434853,33391.5230143722
92 SHREWSBURY ROAD SINGAPORE 307847,92,NIL,1.31827124566437,103.849231456157,103.849231456157,307847,SHREWSBURY ROAD,92 SHREWSBURY ROAD SINGAPORE 307847,29770.9476781627,33393.2595188655
96 SHREWSBURY ROAD SINGAPORE 307848,96,NIL,1.3182931566993,103.849388380335,103.849388380335,307848,SHREWSBURY ROAD,96 SHREWSBURY ROAD SINGAPORE 307848,29788.4117902126,33395.6824406944
98 SHREWSBURY ROAD SINGAPORE 307849,98,NIL,1.31830498862004,103.84950096816,103.84950096816,307849,SHREWSBURY ROAD,98 SHREWSBURY ROAD SINGAPORE 307849,29800.9417063594,33396.9908348266
100 SHREWSBURY ROAD SINGAPORE 307850,100,NIL,1.31832989000195,103.849641893525,103.849641893525,307850,SHREWSBURY ROAD,100 SHREWSBURY ROAD SINGAPORE 307850,29816.6253042668,33399.7444041092
102 SHREWSBURY ROAD SINGAPORE 307851,102,NIL,1.31833503542361,103.849715144977,103.849715144977,307851,SHREWSBURY ROAD,102 SHREWSBURY ROAD SINGAPORE 307851,29824.7774711251,33400.3134119362
108 SHREWSBURY ROAD SINGAPORE 307852,108,NIL,1.3184274137836,103.850234915911,103.850234915911,307852,SHREWSBURY ROAD,108 SHREWSBURY ROAD SINGAPORE 307852,29882.6228266833,33410.5285234917
110 SHREWSBURY ROAD SINGAPORE 307853,110,NIL,1.31844417742224,103.85032073289,103.85032073289,307853,SHREWSBURY ROAD,110 SHREWSBURY ROAD SINGAPORE 307853,29892.1734046573,33412.3822256196
113 SHREWSBURY ROAD SINGAPORE 307854,113,NIL,1.31863308368587,103.849312002304,103.849312002304,307854,SHREWSBURY ROAD,113 SHREWSBURY ROAD SINGAPORE 307854,29779.9114204692,33433.2697676979
113A SHREWSBURY ROAD SINGAPORE 307855,113A,NIL,1.31863951036969,103.849483408448,103.849483408448,307855,SHREWSBURY ROAD,113A SHREWSBURY ROAD SINGAPORE 307855,29798.9872421147,33433.9805204924
115 SHREWSBURY ROAD TREASURE LOFT SINGAPORE 307856,115,TREASURE LOFT,1.31871181570346,103.849669528243,103.849669528243,307856,SHREWSBURY ROAD,TREASURE LOFT,29819.7005011439,33441.9758083913
53 SHREWSBURY ROAD SINGAPORE 307857,53,NIL,1.31833728130982,103.847891092939,103.847891092939,307857,SHREWSBURY ROAD,53 SHREWSBURY ROAD SINGAPORE 307857,29621.7783069573,33400.5604894869
55 SHREWSBURY ROAD SINGAPORE 307858,55,NIL,1.31835014861563,103.847947466306,103.847947466306,307858,SHREWSBURY ROAD,55 SHREWSBURY ROAD SINGAPORE 307858,29628.052103282,33401.9833268654
30A SHREWSBURY ROAD TEMPORARY SITE OFFICE SINGAPORE 307859,30A,TEMPORARY SITE OFFICE,1.3176946035936,103.847535120416,103.847535120416,307859,SHREWSBURY ROAD,TEMPORARY SITE OFFICE,29582.1624499522,33329.4962579366
1 PADANG CHANCERY SINGAPORE 307876,1,NIL,1.32496145784557,103.838330678761,103.838330678761,307876,PADANG CHANCERY,1 PADANG CHANCERY SINGAPORE 307876,28557.7962061763,34133.0237511564
2 PADANG CHANCERY SINGAPORE 307877,2,NIL,1.32472848954521,103.838025628032,103.838025628032,307877,PADANG CHANCERY,2 PADANG CHANCERY SINGAPORE 307877,28523.8471816191,34107.2632453069
3 PADANG CHANCERY SINGAPORE 307878,3,NIL,1.32480248506414,103.838423080567,103.838423080567,307878,PADANG CHANCERY,3 PADANG CHANCERY SINGAPORE 307878,28568.0796325719,34115.4453774691
5 PADANG CHANCERY SINGAPORE 307879,5,NIL,1.32461744703396,103.838442491255,103.838442491255,307879,PADANG CHANCERY,5 PADANG CHANCERY SINGAPORE 307879,28570.2398888376,34094.9848258365
7 PADANG CHANCERY SINGAPORE 307880,7,NIL,1.3243738459013,103.838392468737,103.838392468737,307880,PADANG CHANCERY,7 PADANG CHANCERY SINGAPORE 307880,28564.6729407366,34068.0486509632
8 PADANG CHANCERY SINGAPORE 307881,8,NIL,1.32449317710242,103.838085073513,103.838085073513,307881,PADANG CHANCERY,8 PADANG CHANCERY SINGAPORE 307881,28530.4629153563,34081.2436152473
9 PADANG CHANCERY SINGAPORE 307882,9,NIL,1.32428924083035,103.83837716132,103.83837716132,307882,PADANG CHANCERY,9 PADANG CHANCERY SINGAPORE 307882,28562.9693980766,34058.6934528239
10 PADANG CHANCERY SINGAPORE 307883,10,NIL,1.3244260395187,103.838047390286,103.838047390286,307883,PADANG CHANCERY,10 PADANG CHANCERY SINGAPORE 307883,28526.2691651396,34073.819877686
1 NOVENA TERRACE SINGAPORE 307903,1,NIL,1.32117913758975,103.842384045711,103.842384045711,307903,NOVENA TERRACE,1 NOVENA TERRACE SINGAPORE 307903,29008.8966451734,33714.7954623923
3 NOVENA TERRACE SINGAPORE 307904,3,NIL,1.32118435826397,103.842447699552,103.842447699552,307904,NOVENA TERRACE,3 NOVENA TERRACE SINGAPORE 307904,29015.9806851549,33715.3727636449
5 NOVENA TERRACE SINGAPORE 307905,5,NIL,1.3212188700316,103.842503835874,103.842503835874,307905,NOVENA TERRACE,5 NOVENA TERRACE SINGAPORE 307905,29022.2280877978,33719.1889207643
7 NOVENA TERRACE SINGAPORE 307906,7,NIL,1.32120779318984,103.842567770605,103.842567770605,307906,NOVENA TERRACE,7 NOVENA TERRACE SINGAPORE 307906,29029.3433946064,33717.964126803
9 NOVENA TERRACE SINGAPORE 307907,9,NIL,1.32124998263401,103.84261918359,103.84261918359,307907,NOVENA TERRACE,9 NOVENA TERRACE SINGAPORE 307907,29035.0651331758,33722.6292403284
11 NOVENA TERRACE SINGAPORE 307908,11,NIL,1.32127013985037,103.842673179974,103.842673179974,307908,NOVENA TERRACE,11 NOVENA TERRACE SINGAPORE 307908,29041.074387324,33724.858144382
15 NOVENA TERRACE SINGAPORE 307910,15,NIL,1.32128919855405,103.8427327442,103.8427327442,307910,NOVENA TERRACE,15 NOVENA TERRACE SINGAPORE 307910,29047.7032876331,33726.9655830171
17 NOVENA TERRACE ORIENTAL GARDEN SINGAPORE 307911,17,ORIENTAL GARDEN,1.32130703068356,103.842785892834,103.842785892834,307911,NOVENA TERRACE,ORIENTAL GARDEN,29053.6181964753,33728.9373908155
19 NOVENA TERRACE SINGAPORE 307912,19,NIL,1.32132320231709,103.842847038035,103.842847038035,307912,NOVENA TERRACE,19 NOVENA TERRACE SINGAPORE 307912,29060.4230445754,33730.7255930267
21 NOVENA TERRACE SINGAPORE 307913,21,NIL,1.32132156709434,103.84290289627,103.84290289627,307913,NOVENA TERRACE,21 NOVENA TERRACE SINGAPORE 307913,29066.6395133389,33730.5448023584
23 NOVENA TERRACE SINGAPORE 307914,23,NIL,1.32137825539554,103.843011177673,103.843011177673,307914,NOVENA TERRACE,23 NOVENA TERRACE SINGAPORE 307914,29078.6901359642,33736.8131504469
25 NOVENA TERRACE SINGAPORE 307915,25,NIL,1.32139275591708,103.843063900114,103.843063900114,307915,NOVENA TERRACE,25 NOVENA TERRACE SINGAPORE 307915,29084.557614876,33738.4165666159
27 NOVENA TERRACE SINGAPORE 307916,27,NIL,1.32149980209067,103.843090178093,103.843090178093,307916,NOVENA TERRACE,27 NOVENA TERRACE SINGAPORE 307916,29087.4820469264,33750.2531945966
29 NOVENA TERRACE SINGAPORE 307917,29,NIL,1.3214084083012,103.843186572854,103.843186572854,307917,NOVENA TERRACE,29 NOVENA TERRACE SINGAPORE 307917,29098.2098678593,33740.1473807301
31 NOVENA TERRACE SINGAPORE 307918,31,NIL,1.32143669318241,103.84324084669,103.84324084669,307918,NOVENA TERRACE,31 NOVENA TERRACE SINGAPORE 307918,29104.2499953499,33743.275001755
33 NOVENA TERRACE SINGAPORE 307919,33,NIL,1.3214662090489,103.843292771767,103.843292771767,307919,NOVENA TERRACE,33 NOVENA TERRACE SINGAPORE 307919,29110.0287285335,33746.5387379024
35 NOVENA TERRACE SINGAPORE 307920,35,NIL,1.3214913533812,103.84334915339,103.84334915339,307920,NOVENA TERRACE,35 NOVENA TERRACE SINGAPORE 307920,29116.3034328977,33749.3190943524
37 NOVENA TERRACE SINGAPORE 307921,37,NIL,1.32147707904632,103.843412284973,103.843412284973,307921,NOVENA TERRACE,37 NOVENA TERRACE SINGAPORE 307921,29123.3293583505,33747.740740072
39 NOVENA TERRACE SINGAPORE 307922,39,NIL,1.32152486986268,103.843465442168,103.843465442168,307922,NOVENA TERRACE,39 NOVENA TERRACE SINGAPORE 307922,29129.2452055002,33753.0252273493
41 NOVENA TERRACE SINGAPORE 307923,41,NIL,1.32153395812002,103.843519797252,103.843519797252,307923,NOVENA TERRACE,41 NOVENA TERRACE SINGAPORE 307923,29135.2943831179,33754.0301849451
1 NEWTON ROAD NEWTON ONE SINGAPORE 307943,1,NEWTON ONE,1.31404986796426,103.839452778834,103.839452778834,307943,NEWTON ROAD,NEWTON ONE,28682.6776089398,32926.4764505364
7 NEWTON ROAD TRILIGHT SINGAPORE 307945,7,TRILIGHT,1.31447883237245,103.839899712589,103.839899712589,307945,NEWTON ROAD,TRILIGHT,28732.4169260468,32973.9092564806
10 NEWTON ROAD GLOUCESTER MANSIONS SINGAPORE 307947,10,GLOUCESTER MANSIONS,1.31369315585356,103.840387458086,103.840387458086,307947,NEWTON ROAD,GLOUCESTER MANSIONS,28786.6985594695,32887.033332916
11 NEWTON ROAD TRILIGHT SINGAPORE 307948,11,TRILIGHT,1.31468730035104,103.839551770956,103.839551770956,307948,NEWTON ROAD,TRILIGHT,28693.6943075089,32996.9604751077
15 NEWTON ROAD SINGAPORE 307951,15,NIL,1.31532027222584,103.839975036652,103.839975036652,307951,NEWTON ROAD,15 NEWTON ROAD SINGAPORE 307951,28740.7995230649,33066.9513736889
20 NEWTON ROAD AMARYLLIS VILLE SINGAPORE 307953,20,AMARYLLIS VILLE,1.31471753038515,103.841428522625,103.841428522625,307953,NEWTON ROAD,AMARYLLIS VILLE,28902.5587107586,33000.303755518
21 NEWTON ROAD NEWTON 21 SINGAPORE 307954,21,NEWTON 21,1.31490075979298,103.840460862924,103.840460862924,307954,NEWTON ROAD,NEWTON 21,28794.8674342548,33020.5639936347
23 NEWTON ROAD L'VIV SINGAPORE 307955,23,L'VIV,1.31544838531983,103.840354841468,103.840354841468,307955,NEWTON ROAD,L'VIV,28783.06809643,33081.117577035
24 NEWTON ROAD NEWTON IMPERIAL SINGAPORE 307956,24,NEWTON IMPERIAL,1.3153487379872,103.84144796992,103.84144796992,307956,NEWTON ROAD,NEWTON IMPERIAL,28904.7227807902,33070.0994558707
26 NEWTON ROAD 26 NEWTON SINGAPORE 307957,26,26 NEWTON,1.3156928164724,103.841615456446,103.841615456446,307957,NEWTON ROAD,26 NEWTON,28923.3622894511,33108.1459481884
33 NEWTON ROAD SINGAPORE 307962,33,NIL,1.31613868235586,103.840909680136,103.840909680136,307962,NEWTON ROAD,33 NEWTON ROAD SINGAPORE 307962,28844.816054469,33157.4472573027
35 NEWTON ROAD SINGAPORE 307963,35,NIL,1.3164406830755,103.841027120719,103.841027120719,307963,NEWTON ROAD,35 NEWTON ROAD SINGAPORE 307963,28857.8859514464,33190.8409854304
36 NEWTON ROAD HOTEL ROYAL SINGAPORE 307964,36,HOTEL ROYAL,1.31683745906318,103.841921052922,103.841921052922,307964,NEWTON ROAD,HOTEL ROYAL,28957.3717894396,33234.7147607766
37 NEWTON ROAD SINGAPORE 307965,37,NIL,1.31675907634497,103.841125998933,103.841125998933,307965,NEWTON ROAD,37 NEWTON ROAD SINGAPORE 307965,28868.8900282662,33226.0473117623
39 NEWTON ROAD ETONHOUSE PRE-SCHOOL (NEWTON) SINGAPORE 307966,39,ETONHOUSE PRE-SCHOOL (NEWTON),1.31719717914096,103.84102229388,103.84102229388,307966,NEWTON ROAD,ETONHOUSE PRE-SCHOOL (NEWTON),28857.3485131273,33274.4904327337
41 NEWTON ROAD NEWTON LODGE SINGAPORE 307968,41,NEWTON LODGE,1.31756869967119,103.841183539314,103.841183539314,307968,NEWTON ROAD,NEWTON LODGE,28875.2934320979,33315.5713206865
43 NEWTON ROAD SINGAPORE 307970,43,NIL,1.31803504681297,103.841327715505,103.841327715505,307970,NEWTON ROAD,43 NEWTON ROAD SINGAPORE 307970,28891.3386718743,33367.1376435589
45 NEWTON ROAD PEPPERMINT GROVE SINGAPORE 307971,45,PEPPERMINT GROVE,1.31821677264882,103.841493667737,103.841493667737,307971,NEWTON ROAD,PEPPERMINT GROVE,28909.8074691072,33387.232013125
200 NEWTON ROAD NEWTON 200 SINGAPORE 307983,200,NEWTON 200,1.3187129150612,103.84313182731,103.84313182731,307983,NEWTON ROAD,NEWTON 200,29092.1184058683,33442.0935508478
33A NEWTON ROAD SINGAPORE 307984,33A,NIL,1.31619303720078,103.840920765384,103.840920765384,307984,NEWTON ROAD,33A NEWTON ROAD SINGAPORE 307984,28846.0497169495,33163.4575405605
33B NEWTON ROAD SINGAPORE 307985,33B,NIL,1.31627425038395,103.840953120378,103.840953120378,307985,NEWTON ROAD,33B NEWTON ROAD SINGAPORE 307985,28849.650487096,33172.4376881141
33C NEWTON ROAD SINGAPORE 307986,33C,NIL,1.31632897939914,103.840971482816,103.840971482816,307986,NEWTON ROAD,33C NEWTON ROAD SINGAPORE 307986,28851.6940300167,33178.4893477056
55 NEWTON ROAD ACCOUNTING AND CORPORATE REGULATORY AUTHORITY (ACRA) SINGAPORE 307987,55,ACCOUNTING AND CORPORATE REGULATORY AUTHORITY (ACRA),1.31978249878705,103.842142960008,103.842142960008,307987,NEWTON ROAD,ACCOUNTING AND CORPORATE REGULATORY AUTHORITY (ACRA),28982.0667411909,33560.3622164056
35A NEWTON ROAD SINGAPORE 307988,35A,NIL,1.31655191491213,103.841058016947,103.841058016947,307988,NEWTON ROAD,35A NEWTON ROAD SINGAPORE 307988,28861.3243641285,33203.1404411495
18 NEWTON ROAD NEWTON 18 SINGAPORE 307989,18,NEWTON 18,1.31429426375311,103.841150697585,103.841150697585,307989,NEWTON ROAD,NEWTON 18,28871.639602175,32953.5010079239
22 NEWTON ROAD AMARYLLIS VILLE SINGAPORE 307990,22,AMARYLLIS VILLE,1.31478233515073,103.841958399488,103.841958399488,307990,NEWTON ROAD,AMARYLLIS VILLE,28961.528885127,33007.4697309304
50 NEWTON ROAD NEWTON GEMS SINGAPORE 307991,50,NEWTON GEMS,1.31735283303926,103.842083613414,103.842083613414,307991,NEWTON ROAD,NEWTON GEMS,28975.4629935753,33291.7022308707
52 NEWTON ROAD NEWTON GEMS SINGAPORE 307992,52,NEWTON GEMS,1.3168035118917,103.842505668314,103.842505668314,307992,NEWTON ROAD,NEWTON GEMS,29022.4338192837,33230.9612886515
54 NEWTON ROAD NEWTON GEMS SINGAPORE 307993,54,NEWTON GEMS,1.31713516773687,103.842382026112,103.842382026112,307993,NEWTON ROAD,NEWTON GEMS,29008.6735095978,33267.6340382583
60 NEWTON ROAD NEWTON SUITES SINGAPORE 307994,60,NEWTON SUITES,1.31780091416565,103.842313806169,103.842313806169,307994,NEWTON ROAD,NEWTON SUITES,29001.0810280265,33341.2488317247
16 NEWTON ROAD NEWTON KINDERGARTEN SINGAPORE 307995,16,NEWTON KINDERGARTEN,1.31410015547472,103.840838756221,103.840838756221,307995,NEWTON ROAD,NEWTON KINDERGARTEN,28836.9235869106,32932.0374055784
9 NEWTON ROAD TRILIGHT SINGAPORE 307997,9,TRILIGHT,1.31491462017223,103.83968771671,103.83968771671,307997,NEWTON ROAD,TRILIGHT,28708.8236986343,33022.096370846
1 MOUNT ROSIE TERRACE MOUNT ROSIE TERRACE SINGAPORE 308003,1,MOUNT ROSIE TERRACE,1.32225794069613,103.834360824037,103.834360824037,308003,MOUNT ROSIE TERRACE,MOUNT ROSIE TERRACE,28115.9914887296,33834.0821613129
2 MOUNT ROSIE TERRACE MOUNT ROSIE TERRACE SINGAPORE 308004,2,MOUNT ROSIE TERRACE,1.32196107084281,103.834107055743,103.834107055743,308004,MOUNT ROSIE TERRACE,MOUNT ROSIE TERRACE,28087.7496135747,33801.2558065392
3 MOUNT ROSIE TERRACE MOUNT ROSIE TERRACE SINGAPORE 308005,3,MOUNT ROSIE TERRACE,1.32219626043498,103.834401422908,103.834401422908,308005,MOUNT ROSIE TERRACE,MOUNT ROSIE TERRACE,28120.5097419992,33827.2618765421
4 MOUNT ROSIE TERRACE SINGAPORE 308006,4,NIL,1.32193780433764,103.834186575443,103.834186575443,308006,MOUNT ROSIE TERRACE,4 MOUNT ROSIE TERRACE SINGAPORE 308006,28096.5993666537,33798.6831187289
5 MOUNT ROSIE TERRACE MOUNT ROSIE TERRACE SINGAPORE 308007,5,MOUNT ROSIE TERRACE,1.32212687651323,103.83442786472,103.83442786472,308007,MOUNT ROSIE TERRACE,MOUNT ROSIE TERRACE,28123.4524559118,33819.5897599049
6 MOUNT ROSIE TERRACE MOUNT ROSIE TERRACE SINGAPORE 308008,6,MOUNT ROSIE TERRACE,1.3218317106543,103.834173423025,103.834173423025,308008,MOUNT ROSIE TERRACE,MOUNT ROSIE TERRACE,28095.1356372293,33786.9518233314
7 MOUNT ROSIE TERRACE MOUNT ROSIE TERRACE SINGAPORE 308009,7,MOUNT ROSIE TERRACE,1.32206874438476,103.83445215767,103.83445215767,308009,MOUNT ROSIE TERRACE,MOUNT ROSIE TERRACE,28126.1560224853,33813.1618087385
8 MOUNT ROSIE TERRACE MOUNT ROSIE TERRACE SINGAPORE 308010,8,MOUNT ROSIE TERRACE,1.32177618446261,103.834206808335,103.834206808335,308010,MOUNT ROSIE TERRACE,MOUNT ROSIE TERRACE,28098.851092766,33780.8120233696
9 MOUNT ROSIE TERRACE MOUNT ROSIE TERRACE SINGAPORE 308011,9,MOUNT ROSIE TERRACE,1.32200099519457,103.83448071598,103.83448071598,308011,MOUNT ROSIE TERRACE,MOUNT ROSIE TERRACE,28129.3342818478,33805.6704525016
10 MOUNT ROSIE TERRACE MOUNT ROSIE TERRACE SINGAPORE 308012,10,MOUNT ROSIE TERRACE,1.32170893565586,103.83424373909,103.83424373909,308012,MOUNT ROSIE TERRACE,MOUNT ROSIE TERRACE,28102.9611217389,33773.3759970069
11 MOUNT ROSIE TERRACE SINGAPORE 308013,11,NIL,1.32199313353942,103.834573777806,103.834573777806,308013,MOUNT ROSIE TERRACE,11 MOUNT ROSIE TERRACE SINGAPORE 308013,28139.6911383718,33804.8011560086
12 MOUNT ROSIE TERRACE MOUNT ROSIE TERRACE SINGAPORE 308014,12,MOUNT ROSIE TERRACE,1.32168084406002,103.834312213651,103.834312213651,308014,MOUNT ROSIE TERRACE,MOUNT ROSIE TERRACE,28110.5816617319,33770.2697754446
13 MOUNT ROSIE TERRACE MOUNT ROSIE TERRACE SINGAPORE 308015,13,MOUNT ROSIE TERRACE,1.32186445362465,103.83452163193,103.83452163193,308015,MOUNT ROSIE TERRACE,MOUNT ROSIE TERRACE,28133.8878275864,33790.5723887384
1 MOUNT ROSIE ROAD SINGAPORE 308035,1,NIL,1.32109754728258,103.836812789975,103.836812789975,308035,MOUNT ROSIE ROAD,1 MOUNT ROSIE ROAD SINGAPORE 308035,28388.8710733373,33705.77206189
3 MOUNT ROSIE ROAD MOUNT ROSIE VILLAS SINGAPORE 308036,3,MOUNT ROSIE VILLAS,1.32130865861742,103.836610924547,103.836610924547,308036,MOUNT ROSIE ROAD,MOUNT ROSIE VILLAS,28366.4054191234,33729.1156389713
3A MOUNT ROSIE ROAD MOUNT ROSIE VILLAS SINGAPORE 308037,3A,MOUNT ROSIE VILLAS,1.32136653509936,103.836587752731,103.836587752731,308037,MOUNT ROSIE ROAD,MOUNT ROSIE VILLAS,28363.8266171785,33735.515319841
3B MOUNT ROSIE ROAD MOUNT ROSIE VILLAS SINGAPORE 308038,3B,MOUNT ROSIE VILLAS,1.32149886525028,103.836601845496,103.836601845496,308038,MOUNT ROSIE ROAD,MOUNT ROSIE VILLAS,28365.3949830225,33750.1477106735
3C MOUNT ROSIE ROAD MOUNT ROSIE VILLAS SINGAPORE 308039,3C,MOUNT ROSIE VILLAS,1.32154938383748,103.836542764153,103.836542764153,308039,MOUNT ROSIE ROAD,MOUNT ROSIE VILLAS,28358.8198083835,33755.7337881401
5 MOUNT ROSIE ROAD MOUNT ROSIE VILLAS SINGAPORE 308040,5,MOUNT ROSIE VILLAS,1.32161147989259,103.836316075983,103.836316075983,308040,MOUNT ROSIE ROAD,MOUNT ROSIE VILLAS,28333.5916558309,33762.6000197101
5A MOUNT ROSIE ROAD MOUNT ROSIE VILLAS SINGAPORE 308041,5A,MOUNT ROSIE VILLAS,1.3217686136677,103.836443562805,103.836443562805,308041,MOUNT ROSIE ROAD,MOUNT ROSIE VILLAS,28347.7796521271,33779.9750833511
5B MOUNT ROSIE ROAD MOUNT ROSIE VILLAS SINGAPORE 308042,5B,MOUNT ROSIE VILLAS,1.32189141581459,103.836598178714,103.836598178714,308042,MOUNT ROSIE ROAD,MOUNT ROSIE VILLAS,28364.9868495297,33793.5539364759
7 MOUNT ROSIE ROAD MONTROSE TERRACE SINGAPORE 308043,7,MONTROSE TERRACE,1.32211670628313,103.83656407784,103.83656407784,308043,MOUNT ROSIE ROAD,MONTROSE TERRACE,28361.1917286599,33818.4653951135
9 MOUNT ROSIE ROAD SINGAPORE 308044,9,NIL,1.32218988050259,103.836405075221,103.836405075221,308044,MOUNT ROSIE ROAD,9 MOUNT ROSIE ROAD SINGAPORE 308044,28343.4963086788,33826.5566022526
9A MOUNT ROSIE ROAD SINGAPORE 308045,9A,NIL,1.32205881581738,103.836162624798,103.836162624798,308045,MOUNT ROSIE ROAD,9A MOUNT ROSIE ROAD SINGAPORE 308045,28316.5140053984,33812.0641100425
9B MOUNT ROSIE ROAD SINGAPORE 308046,9B,NIL,1.32189104499494,103.83607569008,103.83607569008,308046,MOUNT ROSIE ROAD,9B MOUNT ROSIE ROAD SINGAPORE 308046,28306.8390562786,33793.512862822
11 MOUNT ROSIE ROAD SINGAPORE 308047,11,NIL,1.32219881426743,103.835713661398,103.835713661398,308047,MOUNT ROSIE ROAD,11 MOUNT ROSIE ROAD SINGAPORE 308047,28266.5488285972,33827.5443676338
11A MOUNT ROSIE ROAD SINGAPORE 308048,11A,NIL,1.32207552944544,103.835872344689,103.835872344689,308048,MOUNT ROSIE ROAD,11A MOUNT ROSIE ROAD SINGAPORE 308048,28284.2087139646,33813.9121823236
14 MOUNT ROSIE ROAD SINGAPORE 308050,14,NIL,1.32394849544582,103.836044004915,103.836044004915,308050,MOUNT ROSIE ROAD,14 MOUNT ROSIE ROAD SINGAPORE 308050,28303.3125637639,34021.0151705276
15 MOUNT ROSIE ROAD SINGAPORE 308051,15,NIL,1.3225446032373,103.835484236519,103.835484236519,308051,MOUNT ROSIE ROAD,15 MOUNT ROSIE ROAD SINGAPORE 308051,28241.0160893239,33865.7799137775
19 MOUNT ROSIE ROAD SINGAPORE 308052,19,NIL,1.32224163921918,103.835083031573,103.835083031573,308052,MOUNT ROSIE ROAD,19 MOUNT ROSIE ROAD SINGAPORE 308052,28196.3660007315,33832.2796726152
19A MOUNT ROSIE ROAD SINGAPORE 308053,19A,NIL,1.32224163949291,103.835083031573,103.835083031573,308053,MOUNT ROSIE ROAD,19A MOUNT ROSIE ROAD SINGAPORE 308053,28196.3660007315,33832.2797028832
21 MOUNT ROSIE ROAD SINGAPORE 308054,21,NIL,1.32213287222894,103.83469084657,103.83469084657,308054,MOUNT ROSIE ROAD,21 MOUNT ROSIE ROAD SINGAPORE 308054,28152.7197195515,33820.2527498212
21A MOUNT ROSIE ROAD SINGAPORE 308057,21A,NIL,1.32213287168147,103.834690846298,103.834690846298,308057,MOUNT ROSIE ROAD,21A MOUNT ROSIE ROAD SINGAPORE 308057,28152.7196892835,33820.2526892852
7A MOUNT ROSIE ROAD MONTROSE TERRACE SINGAPORE 308058,7A,MONTROSE TERRACE,1.32209225874454,103.836488391296,103.836488391296,308058,MOUNT ROSIE ROAD,MONTROSE TERRACE,28352.7685725428,33815.7621009517
7B MOUNT ROSIE ROAD MONTROSE TERRACE SINGAPORE 308059,7B,MONTROSE TERRACE,1.32203528016342,103.83646818112,103.83646818112,308059,MOUNT ROSIE ROAD,MONTROSE TERRACE,28350.5193889411,33809.4616990704
7C MOUNT ROSIE ROAD MONTROSE TERRACE SINGAPORE 308060,7C,MONTROSE TERRACE,1.32201326172314,103.836396394415,103.836396394415,308060,MOUNT ROSIE ROAD,MONTROSE TERRACE,28342.5302454429,33807.0270029958
7D MOUNT ROSIE ROAD MONTROSE TERRACE SINGAPORE 308061,7D,MONTROSE TERRACE,1.32195600201869,103.836375203232,103.836375203232,308061,MOUNT ROSIE ROAD,MONTROSE TERRACE,28340.1718852231,33800.6955158934
7E MOUNT ROSIE ROAD MONTROSE TERRACE SINGAPORE 308062,7E,MONTROSE TERRACE,1.32192024434011,103.836329647301,103.836329647301,308062,MOUNT ROSIE ROAD,MONTROSE TERRACE,28335.1019676831,33796.7416091803
11J MOUNT ROSIE ROAD ROSIE VIEW SINGAPORE 308063,11J,ROSIE VIEW,1.32240506670348,103.835849534847,103.835849534847,308063,MOUNT ROSIE ROAD,ROSIE VIEW,28281.670168438,33850.3507182729
11K MOUNT ROSIE ROAD ROSIE VIEW SINGAPORE 308064,11K,ROSIE VIEW,1.32244041525404,103.835802903873,103.835802903873,308064,MOUNT ROSIE ROAD,ROSIE VIEW,28276.4806015585,33854.2593743503
11L MOUNT ROSIE ROAD ROSIE VIEW SINGAPORE 308065,11L,ROSIE VIEW,1.32248578323889,103.835768145383,103.835768145383,308065,MOUNT ROSIE ROAD,ROSIE VIEW,28272.6123229712,33859.2759294361
11M MOUNT ROSIE ROAD ROSIE VIEW SINGAPORE 308066,11M,ROSIE VIEW,1.32251532618798,103.835719405516,103.835719405516,308066,MOUNT ROSIE ROAD,ROSIE VIEW,28267.1880581453,33862.5426318459
11N MOUNT ROSIE ROAD ROSIE VIEW SINGAPORE 308067,11N,ROSIE VIEW,1.32259023901041,103.835662314731,103.835662314731,308067,MOUNT ROSIE ROAD,ROSIE VIEW,28260.8344148789,33870.8261012193
24 MOUNT ROSIE ROAD SINGAPORE 308068,24,NIL,1.32251744737333,103.833720730877,103.833720730877,308068,MOUNT ROSIE ROAD,24 MOUNT ROSIE ROAD SINGAPORE 308068,28044.755486371,33862.7770573813
1A MOUNT ROSIE ROAD SINGAPORE 308069,1A,NIL,1.32107642913705,103.836757426701,103.836757426701,308069,MOUNT ROSIE ROAD,1A MOUNT ROSIE ROAD SINGAPORE 308069,28382.709692304,33703.4369172137
1B MOUNT ROSIE ROAD SINGAPORE 308070,1B,NIL,1.32105022504916,103.836689564052,103.836689564052,308070,MOUNT ROSIE ROAD,1B MOUNT ROSIE ROAD SINGAPORE 308070,28375.1572552752,33700.5393934008
1C MOUNT ROSIE ROAD SINGAPORE 308071,1C,NIL,1.3210291006054,103.836633893178,103.836633893178,308071,MOUNT ROSIE ROAD,1C MOUNT ROSIE ROAD SINGAPORE 308071,28368.9616411515,33698.2035525609
1D MOUNT ROSIE ROAD SINGAPORE 308072,1D,NIL,1.32100281932063,103.836566657975,103.836566657975,308072,MOUNT ROSIE ROAD,1D MOUNT ROSIE ROAD SINGAPORE 308072,28361.4790323609,33695.2974931765
1E MOUNT ROSIE ROAD SINGAPORE 308073,1E,NIL,1.32098196176339,103.836511218553,103.836511218553,308073,MOUNT ROSIE ROAD,1E MOUNT ROSIE ROAD SINGAPORE 308073,28355.3091762923,33692.9911636207
1F MOUNT ROSIE ROAD SINGAPORE 308074,1F,NIL,1.32111814751506,103.836469651348,103.836469651348,308074,MOUNT ROSIE ROAD,1F MOUNT ROSIE ROAD SINGAPORE 308074,28350.6831387328,33708.0498790052
1G MOUNT ROSIE ROAD SINGAPORE 308075,1G,NIL,1.32114072383786,103.836528527436,103.836528527436,308075,MOUNT ROSIE ROAD,1G MOUNT ROSIE ROAD SINGAPORE 308075,28357.2354610441,33710.5462612286
91 MOULMEIN ROAD MOULMEIN COURT SINGAPORE 308078,91,MOULMEIN COURT,1.31888138706097,103.850104803596,103.850104803596,308078,MOULMEIN ROAD,MOULMEIN COURT,29868.1422600569,33460.7264610883
93 MOULMEIN ROAD MOULMEIN COURT SINGAPORE 308079,93,MOULMEIN COURT,1.3188813276663,103.850104014056,103.850104014056,308079,MOULMEIN ROAD,MOULMEIN COURT,29868.0543921003,33460.7198929358
103 MOULMEIN ROAD CITIBANK SHELL MOULMEIN SINGAPORE 308080,103,CITIBANK SHELL MOULMEIN,1.31890210633368,103.849796860669,103.849796860669,308080,MOULMEIN ROAD,CITIBANK SHELL MOULMEIN,29833.8712144215,33463.0172631685
125 MOULMEIN ROAD KUANG CHEE TNG BUDDHIST ASSOCIATION SINGAPORE 308081,125,KUANG CHEE TNG BUDDHIST ASSOCIATION,1.31867067680539,103.848924956296,103.848924956296,308081,MOULMEIN ROAD,KUANG CHEE TNG BUDDHIST ASSOCIATION,29736.8369620368,33437.4263488315
131 MOULMEIN ROAD MOULMEIN CHURCH OF CHRIST SINGAPORE 308082,131,MOULMEIN CHURCH OF CHRIST,1.31853717456399,103.848785958541,103.848785958541,308082,MOULMEIN ROAD,MOULMEIN CHURCH OF CHRIST,29721.3679641346,33422.6642596889
133 MOULMEIN ROAD SINGAPORE 308083,133,NIL,1.31840833197495,103.84861811451,103.84861811451,308083,MOULMEIN ROAD,133 MOULMEIN ROAD SINGAPORE 308083,29702.6886530751,33408.4173921645
135 MOULMEIN ROAD SINGAPORE 308084,135,NIL,1.31850968509637,103.848494163775,103.848494163775,308084,MOULMEIN ROAD,135 MOULMEIN ROAD SINGAPORE 308084,29688.8940800317,33419.6244158149
137 MOULMEIN ROAD SINGAPORE 308085,137,NIL,1.31860826325211,103.848346328305,103.848346328305,308085,MOULMEIN ROAD,137 MOULMEIN ROAD SINGAPORE 308085,29672.4413726591,33430.5245826468
141 MOULMEIN ROAD SINGAPORE 308086,141,NIL,1.31858331104866,103.848086159167,103.848086159167,308086,MOULMEIN ROAD,141 MOULMEIN ROAD SINGAPORE 308086,29643.4871102385,33427.7653229833
142 MOULMEIN ROAD DEPARTMENT OF CLINICAL EPIDEMIOLOGY (TAN TOCK SENG HOSPITAL) SINGAPORE 308087,142,DEPARTMENT OF CLINICAL EPIDEMIOLOGY (TAN TOCK SENG HOSPITAL),1.31969753589108,103.84792924133,103.84792924133,308087,MOULMEIN ROAD,DEPARTMENT OF CLINICAL EPIDEMIOLOGY (TAN TOCK SENG HOSPITAL),29626.0229679216,33550.97048481
143 MOULMEIN ROAD SINGAPORE 308088,143,NIL,1.31856476998611,103.847953814058,103.847953814058,308088,MOULMEIN ROAD,143 MOULMEIN ROAD SINGAPORE 308088,29628.7584066819,33425.7150605712
144 MOULMEIN ROAD TUBERCULOSIS CONTROL UNIT SINGAPORE 308089,144,TUBERCULOSIS CONTROL UNIT,1.31949361193022,103.847512474126,103.847512474126,308089,MOULMEIN ROAD,TUBERCULOSIS CONTROL UNIT,29579.6410058364,33528.4213514961
147 MOULMEIN ROAD MOULMEIN STUDIOS SINGAPORE 308090,147,MOULMEIN STUDIOS,1.31845944056635,103.847482119029,103.847482119029,308090,MOULMEIN ROAD,MOULMEIN STUDIOS,29576.2634318015,33414.0679707043
165 MOULMEIN ROAD SINGAPORE 308091,165,NIL,1.31833266164555,103.846602919338,103.846602919338,308091,MOULMEIN ROAD,165 MOULMEIN ROAD SINGAPORE 308091,29478.4171802187,33400.0488697588
167 MOULMEIN ROAD MULBERRY TREE SINGAPORE 308092,167,MULBERRY TREE,1.31818439913906,103.846394220029,103.846394220029,308092,MOULMEIN ROAD,MULBERRY TREE,29455.1910731811,33383.6546401288
169 MOULMEIN ROAD SINGAPORE 308093,169,NIL,1.31825305742195,103.846124872872,103.846124872872,308093,MOULMEIN ROAD,169 MOULMEIN ROAD SINGAPORE 308093,29425.2153268466,33391.2463650014
169A MOULMEIN ROAD SINGAPORE 308094,169A,NIL,1.31825748296382,103.846105249196,103.846105249196,308094,MOULMEIN ROAD,169A MOULMEIN ROAD SINGAPORE 308094,29423.0314010167,33391.7357074935
190 MOULMEIN ROAD THE HUNTINGTON SINGAPORE 308095,190,THE HUNTINGTON,1.31880224228412,103.845318707665,103.845318707665,308095,MOULMEIN ROAD,THE HUNTINGTON,29335.4967250545,33451.971961353
145 MOULMEIN ROAD SINGAPORE 308106,145,NIL,1.31854797889087,103.84786817904,103.84786817904,308106,MOULMEIN ROAD,145 MOULMEIN ROAD SINGAPORE 308106,29619.2280779891,33423.8583316449
200 MOULMEIN ROAD NOVENA SUITES' SINGAPORE 308107,200,NOVENA SUITES',1.31886774002956,103.844735181248,103.844735181248,308107,MOULMEIN ROAD,NOVENA SUITES',29270.5559184859,33459.2140607461
145A MOULMEIN ROAD ST RESIDENCES NOVENA SINGAPORE 308108,145A,ST RESIDENCES NOVENA,1.31829752947443,103.847714757109,103.847714757109,308108,MOULMEIN ROAD,ST RESIDENCES NOVENA,29602.1538781058,33396.1648215521
139 MOULMEIN ROAD SINGAPORE 308109,139,NIL,1.31859843567091,103.84816833522,103.84816833522,308109,MOULMEIN ROAD,139 MOULMEIN ROAD SINGAPORE 308109,29652.632490715,33429.437780425
10 MOULMEIN RISE LA MAISON SINGAPORE 308125,10,LA MAISON,1.31953348960235,103.847029859453,103.847029859453,308125,MOULMEIN RISE,LA MAISON,29525.9307108745,33532.8305189516
14 MOULMEIN RISE SINGAPORE 308129,14,NIL,1.31951898551971,103.84679324918,103.84679324918,308129,MOULMEIN RISE,14 MOULMEIN RISE SINGAPORE 308129,29499.5983217396,33531.2265882269
18 MOULMEIN RISE CITY EDGE SINGAPORE 308133,18,CITY EDGE,1.31953328897071,103.84662602278,103.84662602278,308133,MOULMEIN RISE,CITY EDGE,29480.9876584671,33532.8080903757
19 MOULMEIN RISE REVIVAL CENTRE CHURCH SINGAPORE 308134,19,REVIVAL CENTRE CHURCH,1.31912103794281,103.84635205161,103.84635205161,308134,MOULMEIN RISE,REVIVAL CENTRE CHURCH,29450.497598554,33487.2233264465
26 MOULMEIN RISE SINGAPORE 308139,26,NIL,1.31977279442318,103.84640598736,103.84640598736,308139,MOULMEIN RISE,26 MOULMEIN RISE SINGAPORE 308139,29456.4997397251,33559.2912443373
27 MOULMEIN RISE NEU AT NOVENA SINGAPORE 308140,27,NEU AT NOVENA,1.31961486592659,103.845969245127,103.845969245127,308140,MOULMEIN RISE,NEU AT NOVENA,29407.8947153082,33541.8280705959
30 MOULMEIN RISE TIANSO HEIGHTS SINGAPORE 308141,30,TIANSO HEIGHTS,1.32003503016336,103.846224794198,103.846224794198,308141,MOULMEIN RISE,TIANSO HEIGHTS,29436.3345733443,33588.287821399
32 MOULMEIN RISE SINGAPORE 308142,32,NIL,1.32014084454383,103.846085549143,103.846085549143,308142,MOULMEIN RISE,32 MOULMEIN RISE SINGAPORE 308142,29420.837910505,33599.9881526493
1 MOULMEIN RISE 1 MOULMEIN RISE SINGAPORE 308143,1,1 MOULMEIN RISE,1.31908636997896,103.847053580169,103.847053580169,308143,MOULMEIN RISE,1 MOULMEIN RISE,29528.5708660223,33483.3903403282
3 MOULMEIN RISE THE SPRINGS SINGAPORE 308144,3,THE SPRINGS,1.31911757962448,103.846655980088,103.846655980088,308144,MOULMEIN RISE,THE SPRINGS,29484.3218584815,33486.8411023486
8 MINBU ROAD MONTEBLEU SINGAPORE 308162,8,MONTEBLEU,1.32378273509884,103.850102052541,103.850102052541,308162,MINBU ROAD,MONTEBLEU,29867.832436976,34002.6923860498
15 MINBU ROAD MANDALAY MANSION SINGAPORE 308166,15,MANDALAY MANSION,1.3238494392232,103.849267497709,103.849267497709,308166,MINBU ROAD,MANDALAY MANSION,29774.9547959911,34010.0675737653
23 MINBU ROAD D' IXORAS SINGAPORE 308172,23,D' IXORAS,1.32411334495333,103.849040669227,103.849040669227,308172,MINBU ROAD,D' IXORAS,29749.710873819,34039.2487552594
54 MINBU ROAD MINBU COURT SINGAPORE 308184,54,MINBU COURT,1.32548941766951,103.848375446944,103.848375446944,308184,MINBU ROAD,MINBU COURT,29675.6773833334,34191.4073622692
56 MINBU ROAD MINBU VILLA SINGAPORE 308185,56,MINBU VILLA,1.32578698013765,103.848059253669,103.848059253669,308185,MINBU ROAD,MINBU VILLA,29640.4880676083,34224.3100831658
2 MINBU ROAD MEDGE SINGAPORE 308186,2,MEDGE,1.32337432256355,103.850380826925,103.850380826925,308186,MINBU ROAD,MEDGE,29898.8575440375,33957.5324332714
1 MANDALAY ROAD NATIONAL SKIN CENTRE SINGAPORE 308205,1,NATIONAL SKIN CENTRE,1.3196829018253,103.849006940327,103.849006940327,308205,MANDALAY ROAD,NATIONAL SKIN CENTRE,29745.9602771532,33549.3530545644
2 MANDALAY ROAD SINGAPORE 308206,2,NIL,1.32103723759555,103.849777918687,103.849777918687,308206,MANDALAY ROAD,2 MANDALAY ROAD SINGAPORE 308206,29831.7615964925,33699.1091100983
21 MANDALAY ROAD M21 SINGAPORE 308208,21,M21,1.32252220755117,103.848891146474,103.848891146474,308208,MANDALAY ROAD,M21,29733.071594595,33863.3088355865
33 MANDALAY ROAD THE ANSLEY SINGAPORE 308214,33,THE ANSLEY,1.32327434333138,103.848835015461,103.848835015461,308214,MANDALAY ROAD,THE ANSLEY,29726.8242524872,33946.4761139099
35 MANDALAY ROAD MANDALAY TOWERS SINGAPORE 308215,35,MANDALAY TOWERS,1.32356017570747,103.849109072916,103.849109072916,308215,MANDALAY ROAD,MANDALAY TOWERS,29757.3239073521,33978.0821846519
39 MANDALAY ROAD MANDALAY TOWERS SINGAPORE 308216,39,MANDALAY TOWERS,1.32383858491685,103.848790804964,103.848790804964,308216,MANDALAY ROAD,MANDALAY TOWERS,29721.9036771785,34008.8670244589
45 MANDALAY ROAD MANDALE HEIGHTS SINGAPORE 308225,45,MANDALE HEIGHTS,1.32433421345059,103.849717961403,103.849717961403,308225,MANDALAY ROAD,MANDALE HEIGHTS,29825.0865375074,34063.6717491765
47 MANDALAY ROAD THE AXIS SINGAPORE 308227,47,THE AXIS,1.32462194319897,103.849957588255,103.849957588255,308227,MANDALAY ROAD,THE AXIS,29851.7543867053,34095.4876073133
51 MANDALAY ROAD MONARCHY APARTMENTS SINGAPORE 308231,51,MONARCHY APARTMENTS,1.32479229453516,103.85012690661,103.85012690661,308231,MANDALAY ROAD,MONARCHY APARTMENTS,29870.5976897003,34114.3243118878
11 MANDALAY ROAD LEE KONG CHIAN SCHOOL OF MEDICINE (NOVENA CAMPUS) SINGAPORE 308232,11,LEE KONG CHIAN SCHOOL OF MEDICINE (NOVENA CAMPUS),1.32132459083846,103.848949245667,103.848949245667,308232,MANDALAY ROAD,LEE KONG CHIAN SCHOOL OF MEDICINE (NOVENA CAMPUS),29739.5382887796,33730.8825627901
4 MALCOLM ROAD SINGAPORE 308251,4,NIL,1.32402525276408,103.834951257315,103.834951257315,308251,MALCOLM ROAD,4 MALCOLM ROAD SINGAPORE 308251,28181.7007086007,34029.502494771
4A MALCOLM ROAD SINGAPORE 308252,4A,NIL,1.32402525303781,103.834951257043,103.834951257043,308252,MALCOLM ROAD,4A MALCOLM ROAD SINGAPORE 308252,28181.7006783327,34029.502525039
5 MALCOLM ROAD SINGAPORE 308253,5,NIL,1.32338220515232,103.834318542608,103.834318542608,308253,MALCOLM ROAD,5 MALCOLM ROAD SINGAPORE 308253,28111.285937177,33958.3975527808
11 MALCOLM ROAD SINGAPORE 308254,11,NIL,1.32488718599681,103.833753083657,103.833753083657,308254,MALCOLM ROAD,11 MALCOLM ROAD SINGAPORE 308254,28048.3559841057,34124.810594311
13 MALCOLM ROAD SINGAPORE 308255,13,NIL,1.32488718599681,103.833753083929,103.833753083929,308255,MALCOLM ROAD,13 MALCOLM ROAD SINGAPORE 308255,28048.3560143737,34124.810594311
15 MALCOLM ROAD SINGAPORE 308256,15,NIL,1.324823032881,103.833166853723,103.833166853723,308256,MALCOLM ROAD,15 MALCOLM ROAD SINGAPORE 308256,27983.1144953873,34117.7168685757
17 MALCOLM ROAD SINGAPORE 308257,17,NIL,1.32482303315473,103.833166853723,103.833166853723,308257,MALCOLM ROAD,17 MALCOLM ROAD SINGAPORE 308257,27983.1144953873,34117.7168988436
19 MALCOLM ROAD SINGAPORE 308258,19,NIL,1.32440291133003,103.83271794963,103.83271794963,308258,MALCOLM ROAD,19 MALCOLM ROAD SINGAPORE 308258,27933.1559775425,34071.2619909178
20 MALCOLM ROAD SINGAPORE 308259,20,NIL,1.32530915994148,103.831816427846,103.831816427846,308259,MALCOLM ROAD,20 MALCOLM ROAD SINGAPORE 308259,27832.8257233389,34171.4703559503
21 MALCOLM ROAD SINGAPORE 308260,21,NIL,1.32418832849189,103.832608991431,103.832608991431,308260,MALCOLM ROAD,21 MALCOLM ROAD SINGAPORE 308260,27921.0300179049,34047.5345249977
22 MALCOLM ROAD SINGAPORE 308261,22,NIL,1.3246485296238,103.83187525897,103.83187525897,308261,MALCOLM ROAD,22 MALCOLM ROAD SINGAPORE 308261,27839.3729908969,34098.4212408308
24 MALCOLM ROAD SINGAPORE 308262,24,NIL,1.32401706251016,103.831481941888,103.831481941888,308262,MALCOLM ROAD,24 MALCOLM ROAD SINGAPORE 308262,27795.6007041,34028.5968766976
25 MALCOLM ROAD SINGAPORE 308263,25,NIL,1.32345523370047,103.831274638562,103.831274638562,308263,MALCOLM ROAD,25 MALCOLM ROAD SINGAPORE 308263,27772.5298718195,33966.4727481566
26A MALCOLM ROAD SINGAPORE 308264,26A,NIL,1.32389302188624,103.830680343922,103.830680343922,308264,MALCOLM ROAD,26A MALCOLM ROAD SINGAPORE 308264,27706.3908768464,34014.8811820205
26B MALCOLM ROAD SINGAPORE 308265,26B,NIL,1.32384115246884,103.830910567276,103.830910567276,308265,MALCOLM ROAD,26B MALCOLM ROAD SINGAPORE 308265,27732.0124223838,34009.1457017846
27 MALCOLM ROAD SINGAPORE 308266,27,NIL,1.3237276458118,103.830398506396,103.830398506396,308266,MALCOLM ROAD,27 MALCOLM ROAD SINGAPORE 308266,27675.0251641637,33996.5947796572
28 MALCOLM ROAD SINGAPORE 308267,28,NIL,1.32439841323635,103.831100432938,103.831100432938,308267,MALCOLM ROAD,28 MALCOLM ROAD SINGAPORE 308267,27753.142622889,34070.7647182141
29 MALCOLM ROAD SINGAPORE 308268,29,NIL,1.32414090064954,103.830135996271,103.830135996271,308268,MALCOLM ROAD,29 MALCOLM ROAD SINGAPORE 308268,27645.8104760125,34042.2904152106
30 MALCOLM ROAD SINGAPORE 308269,30,NIL,1.32548525527229,103.830492214131,103.830492214131,308269,MALCOLM ROAD,30 MALCOLM ROAD SINGAPORE 308269,27685.4541190257,34190.9422038961
31B MALCOLM ROAD SINGAPORE 308270,31B,NIL,1.32296704578921,103.829125232203,103.829125232203,308270,MALCOLM ROAD,31B MALCOLM ROAD SINGAPORE 308270,27533.3223597175,33912.4917363487
33 MALCOLM ROAD SINGAPORE 308271,33,NIL,1.32231997604694,103.828757075869,103.828757075869,308271,MALCOLM ROAD,33 MALCOLM ROAD SINGAPORE 308271,27492.350103558,33840.9421576783
35 MALCOLM ROAD SINGAPORE 308272,35,NIL,1.32221844203402,103.827992026655,103.827992026655,308272,MALCOLM ROAD,35 MALCOLM ROAD SINGAPORE 308272,27407.2077182252,33829.7152176946
37 MALCOLM ROAD SINGAPORE 308273,37,NIL,1.32272732001937,103.827155660374,103.827155660374,308273,MALCOLM ROAD,37 MALCOLM ROAD SINGAPORE 308273,27314.1286135409,33885.9845496081
38 MALCOLM ROAD SAINT JOSEPH'S INSTITUTION SINGAPORE 308274,38,SAINT JOSEPH'S INSTITUTION,1.32365560903136,103.828566506127,103.828566506127,308274,MALCOLM ROAD,SAINT JOSEPH'S INSTITUTION,27471.1418721918,33988.62963867
39 MALCOLM ROAD SINGAPORE 308275,39,NIL,1.32219354989643,103.827186701253,103.827186701253,308275,MALCOLM ROAD,39 MALCOLM ROAD SINGAPORE 308275,27317.5830077184,33826.9629802033
41 MALCOLM ROAD SINGAPORE 308276,41,NIL,1.32174668029169,103.826750371788,103.826750371788,308276,MALCOLM ROAD,41 MALCOLM ROAD SINGAPORE 308276,27269.0237484928,33777.5505573209
8 MALCOLM PARK SINGAPORE 308296,8,NIL,1.32461570592711,103.830497270033,103.830497270033,308296,MALCOLM PARK,8 MALCOLM PARK SINGAPORE 308296,27686.0166797712,34094.7918977086
10 MALCOLM PARK SINGAPORE 308297,10,NIL,1.32501542862127,103.830323806362,103.830323806362,308297,MALCOLM PARK,10 MALCOLM PARK SINGAPORE 308297,27666.7119716322,34138.9912052192
12 MALCOLM PARK SINGAPORE 308298,12,NIL,1.3249337806669,103.829721216723,103.829721216723,308298,MALCOLM PARK,12 MALCOLM PARK SINGAPORE 308298,27599.649803156,34129.9630829114
14 MALCOLM PARK SINGAPORE 308299,14,NIL,1.32493378094063,103.829721216723,103.829721216723,308299,MALCOLM PARK,14 MALCOLM PARK SINGAPORE 308299,27599.649803156,34129.9631131794
19 MALCOLM PARK SINGAPORE 308300,19,NIL,1.32459327405536,103.828691112812,103.828691112812,308300,MALCOLM PARK,19 MALCOLM PARK SINGAPORE 308300,27485.0095424149,34092.3117996585
20 MALCOLM PARK SINGAPORE 308301,20,NIL,1.32494375656248,103.829023523592,103.829023523592,308301,MALCOLM PARK,20 MALCOLM PARK SINGAPORE 308301,27522.0035866704,34131.0662903823
18 MALCOLM PARK SINGAPORE 308302,18,NIL,1.32494375683621,103.829023524136,103.829023524136,308302,MALCOLM PARK,18 MALCOLM PARK SINGAPORE 308302,27522.0036472064,34131.0663206503
75 SINARAN DRIVE SINGAPORE 308322,75,NIL,1.31882679779057,103.846081388601,103.846081388601,308322,SINARAN DRIVE,75 SINARAN DRIVE SINGAPORE 308322,29420.3756275894,33454.6876048539
71 SINARAN DRIVE APLETON VIEW SINGAPORE 308323,71,APLETON VIEW,1.31906972390327,103.846101471001,103.846101471001,308323,SINARAN DRIVE,APLETON VIEW,29422.6104641678,33481.5491388794
2 LINCOLN ROAD PARK INFINIA AT WEE NAM SINGAPORE 308342,2,PARK INFINIA AT WEE NAM,1.31392676595811,103.843104093225,103.843104093225,308342,LINCOLN ROAD,PARK INFINIA AT WEE NAM,29089.0339469872,32912.8657554947
4 LINCOLN ROAD PARK INFINIA AT WEE NAM SINGAPORE 308343,4,PARK INFINIA AT WEE NAM,1.31431354880695,103.843753050033,103.843753050033,308343,LINCOLN ROAD,PARK INFINIA AT WEE NAM,29161.2564434716,32955.634507291
6 LINCOLN ROAD PARK INFINIA AT WEE NAM SINGAPORE 308345,6,PARK INFINIA AT WEE NAM,1.3148691336728,103.843480000365,103.843480000365,308345,LINCOLN ROAD,PARK INFINIA AT WEE NAM,29130.8683866626,33017.0681020506
7 LINCOLN ROAD THE LINC SINGAPORE 308346,7,THE LINC,1.31449452187166,103.842505898673,103.842505898673,308346,LINCOLN ROAD,THE LINC,29022.4603945734,32975.6450345423
9 LINCOLN ROAD THE LINC SINGAPORE 308347,9,THE LINC,1.31479298443338,103.842573371652,103.842573371652,308347,LINCOLN ROAD,THE LINC,29029.9693667777,33008.647518713
11 LINCOLN ROAD IRIDIUM SINGAPORE 308349,11,IRIDIUM,1.31513812749678,103.842640203235,103.842640203235,308349,LINCOLN ROAD,IRIDIUM,29037.4069368085,33046.8116929512
20 LINCOLN ROAD THE LINCOLN MODERN SINGAPORE 308353,20,THE LINCOLN MODERN,1.31532312585557,103.843055868846,103.843055868846,308353,LINCOLN ROAD,THE LINCOLN MODERN,29083.6664346308,33067.2680373341
32 LINCOLN ROAD ROSEVALE SINGAPORE 308362,32,ROSEVALE,1.31596822029115,103.84339151806,103.84339151806,308362,LINCOLN ROAD,ROSEVALE,29121.0206678919,33138.5994141083
8 LINCOLN ROAD SINGAPORE 308363,8,NIL,1.31492159707996,103.842994313262,103.842994313262,308363,LINCOLN ROAD,8 LINCOLN ROAD SINGAPORE 308363,29076.8160634842,33022.8690216672
2A LINCOLN ROAD PARK INFINIA AT WEE NAM SINGAPORE 308364,2A,PARK INFINIA AT WEE NAM,1.31441386999901,103.843291191875,103.843291191875,308364,LINCOLN ROAD,PARK INFINIA AT WEE NAM,29109.8560194187,32966.7272995729
1 LINCOLN ROAD MIRO SINGAPORE 308365,1,MIRO,1.31393361941559,103.842380394708,103.842380394708,308365,LINCOLN ROAD,MIRO,29008.493233487,32913.623272324
6A LINCOLN ROAD PARK INFINIA AT WEE NAM SINGAPORE 308366,6A,PARK INFINIA AT WEE NAM,1.31521267865456,103.843547573739,103.843547573739,308366,LINCOLN ROAD,PARK INFINIA AT WEE NAM,29138.3884974848,33055.0555718001
1 KHIANG GUAN AVENUE LINCOLN SUITES SINGAPORE 308380,1,LINCOLN SUITES,1.31710864057354,103.842743087159,103.842743087159,308380,KHIANG GUAN AVENUE,LINCOLN SUITES,29048.8561043292,33264.7009495646
3 KHIANG GUAN AVENUE LINCOLN SUITES SINGAPORE 308381,3,LINCOLN SUITES,1.31710864002609,103.842743087159,103.842743087159,308381,KHIANG GUAN AVENUE,LINCOLN SUITES,29048.8561043292,33264.7008890286
116 KENG LEE ROAD HONG LENG YIEN TEMPLE SINGAPORE 308402,116,HONG LENG YIEN TEMPLE,1.31401544778566,103.844767199253,103.844767199253,308402,KENG LEE ROAD,HONG LENG YIEN TEMPLE,29274.1216685753,32922.6725216843
118 KENG LEE ROAD SINGAPORE 308404,118,NIL,1.31409916136142,103.844401303791,103.844401303791,308404,KENG LEE ROAD,118 KENG LEE ROAD SINGAPORE 308404,29233.4009696292,32931.928955391
119 KENG LEE ROAD SINGAPORE 308405,119,NIL,1.31409176228205,103.844233251116,103.844233251116,308405,KENG LEE ROAD,119 KENG LEE ROAD SINGAPORE 308405,29214.6983219543,32931.1107209884
190 KENG LEE ROAD SINGAPORE 308409,190,NIL,1.31387787363584,103.841364046558,103.841364046558,308409,KENG LEE ROAD,190 KENG LEE ROAD SINGAPORE 308409,28895.3834430743,32907.4588039555
188 KENG LEE ROAD ROCHELLE AT NEWTON SINGAPORE 308414,188,ROCHELLE AT NEWTON,1.31404425678498,103.841922909924,103.841922909924,308414,KENG LEE ROAD,ROCHELLE AT NEWTON,28957.5795186115,32925.8568043746
11 JALAN TAN TOCK SENG SINGAPORE 308433,11,NIL,1.3194999277015,103.849900554786,103.849900554786,308433,JALAN TAN TOCK SENG,11 JALAN TAN TOCK SENG SINGAPORE 308433,29845.4109134814,33529.1213591546
10 JALAN TAN TOCK SENG DOVER PARK HOSPICE SINGAPORE 308436,10,DOVER PARK HOSPICE,1.32076826991197,103.849089575994,103.849089575994,308436,JALAN TAN TOCK SENG,DOVER PARK HOSPICE,29755.1560538225,33669.3675471544
12 JALAN TAN TOCK SENG DOVER PARK HOSPICE SINGAPORE 308437,12,DOVER PARK HOSPICE,1.3205929066599,103.849272584339,103.849272584339,308437,JALAN TAN TOCK SENG,DOVER PARK HOSPICE,29775.5231984574,33649.9769082088
50 JALAN TAN TOCK SENG REN CI NURSING HOME SINGAPORE 308438,50,REN CI NURSING HOME,1.32408770060706,103.847111237283,103.847111237283,308438,JALAN TAN TOCK SENG,REN CI NURSING HOME,29534.9844701635,34036.4118582178
70 JALAN TAN TOCK SENG SINGAPORE 308439,70,NIL,1.32517728407484,103.847695525955,103.847695525955,308439,JALAN TAN TOCK SENG,70 JALAN TAN TOCK SENG SINGAPORE 308439,29600.0092401197,34156.8927804362
7 JALAN TAN TOCK SENG COMMUNICABLE DISEASE CENTRE 2 SINGAPORE 308440,7,COMMUNICABLE DISEASE CENTRE 2,1.32021634378642,103.846932115594,103.846932115594,308440,JALAN TAN TOCK SENG,COMMUNICABLE DISEASE CENTRE 2,29515.0523672579,33608.3369705975
13 JALAN TAN TOCK SENG SINGAPORE 308441,13,NIL,1.32238992940015,103.846543387821,103.846543387821,308441,JALAN TAN TOCK SENG,13 JALAN TAN TOCK SENG SINGAPORE 308441,29471.789520896,33848.6806822717
16 JALAN TAN TOCK SENG NATIONAL CENTRE FOR INFECTIOUS DISEASES SINGAPORE 308442,16,NATIONAL CENTRE FOR INFECTIOUS DISEASES,1.32135126078244,103.847849124245,103.847849124245,308442,JALAN TAN TOCK SENG,NATIONAL CENTRE FOR INFECTIOUS DISEASES,29617.105656703,33733.8308460116
18 JALAN TAN TOCK SENG NG TENG FONG CENTRE FOR HEALTHCARE INNOVATION SINGAPORE 308443,18,NG TENG FONG CENTRE FOR HEALTHCARE INNOVATION,1.32204996058602,103.847606630996,103.847606630996,308443,JALAN TAN TOCK SENG,NG TENG FONG CENTRE FOR HEALTHCARE INNOVATION,29590.1181170605,33811.0893296264
1 JALAN PASIRAN SINGAPORE 308455,1,NIL,1.31931992123222,103.837469576135,103.837469576135,308455,JALAN PASIRAN,1 JALAN PASIRAN SINGAPORE 308455,28461.9651969485,33509.211412413
2 JALAN PASIRAN SINGAPORE 308456,2,NIL,1.31889590919974,103.837450865834,103.837450865834,308456,JALAN PASIRAN,2 JALAN PASIRAN SINGAPORE 308456,28459.8830018127,33462.3263359033
3 JALAN PASIRAN SINGAPORE 308457,3,NIL,1.31925213111951,103.837557172442,103.837557172442,308457,JALAN PASIRAN,3 JALAN PASIRAN SINGAPORE 308457,28471.7138183396,33501.7155462466
5 JALAN PASIRAN SINGAPORE 308458,5,NIL,1.31917430786505,103.837801690652,103.837801690652,308458,JALAN PASIRAN,5 JALAN PASIRAN SINGAPORE 308458,28498.9263096368,33493.1102979388
6 JALAN PASIRAN SINGAPORE 308459,6,NIL,1.31882802529306,103.837641755482,103.837641755482,308459,JALAN PASIRAN,6 JALAN PASIRAN SINGAPORE 308459,28481.1271612765,33454.8201180864
8 JALAN PASIRAN SINGAPORE 308462,8,NIL,1.31879158829145,103.837718575417,103.837718575417,308462,JALAN PASIRAN,8 JALAN PASIRAN SINGAPORE 308462,28489.6764743486,33450.7911165059
1 JALAN NOVENA UTARA ENG AUN PARK SINGAPORE 308479,1,ENG AUN PARK,1.32315593882506,103.842324246341,103.842324246341,308479,JALAN NOVENA UTARA,ENG AUN PARK,29002.24077609,33933.3799745925
2 JALAN NOVENA UTARA ENG AUN PARK SINGAPORE 308480,2,ENG AUN PARK,1.32315083422637,103.842626758601,103.842626758601,308480,JALAN NOVENA UTARA,ENG AUN PARK,29035.9073700914,33932.815658303
3 JALAN NOVENA UTARA ENG AUN PARK SINGAPORE 308481,3,ENG AUN PARK,1.3232162966244,103.842335075746,103.842335075746,308481,JALAN NOVENA UTARA,ENG AUN PARK,29003.4459563978,33940.0540347341
4 JALAN NOVENA UTARA ENG AUN PARK SINGAPORE 308482,4,ENG AUN PARK,1.32322021622345,103.842625552654,103.842625552654,308482,JALAN NOVENA UTARA,ENG AUN PARK,29035.7731315838,33940.4875630643
5 JALAN NOVENA UTARA ENG AUN PARK SINGAPORE 308483,5,ENG AUN PARK,1.3233815158653,103.842317962379,103.842317962379,308483,JALAN NOVENA UTARA,ENG AUN PARK,29001.5413435223,33958.323123809
6 JALAN NOVENA UTARA ENG AUN PARK SINGAPORE 308484,6,ENG AUN PARK,1.32338577732632,103.842617031782,103.842617031782,308484,JALAN NOVENA UTARA,ENG AUN PARK,29034.8247751174,33958.7944568526
7 JALAN NOVENA UTARA ENG AUN PARK SINGAPORE 308485,7,ENG AUN PARK,1.32343580805731,103.842317582627,103.842317582627,308485,JALAN NOVENA UTARA,ENG AUN PARK,29001.4990591491,33964.3264757004
8 JALAN NOVENA UTARA ENG AUN PARK SINGAPORE 308486,8,ENG AUN PARK,1.3234540394139,103.842633846283,103.842633846283,308486,JALAN NOVENA UTARA,ENG AUN PARK,29036.696032675,33966.3425352909
9 JALAN NOVENA UTARA ENG AUN PARK SINGAPORE 308487,9,ENG AUN PARK,1.32360793101518,103.84232818588,103.84232818588,308487,JALAN NOVENA UTARA,ENG AUN PARK,29002.6790262265,33983.3589535933
10 JALAN NOVENA UTARA ENG AUN PARK SINGAPORE 308488,10,ENG AUN PARK,1.32358999103162,103.842643064533,103.842643064533,308488,JALAN NOVENA UTARA,ENG AUN PARK,29037.7218751786,33981.3753715493
11 JALAN NOVENA UTARA ENG AUN PARK SINGAPORE 308489,11,ENG AUN PARK,1.32370283171789,103.842339843301,103.842339843301,308489,JALAN NOVENA UTARA,ENG AUN PARK,29003.9763422767,33993.8525911365
12 JALAN NOVENA UTARA ENG AUN PARK SINGAPORE 308490,12,ENG AUN PARK,1.32364157296133,103.842651257942,103.842651257942,308490,JALAN NOVENA UTARA,ENG AUN PARK,29038.6336981887,33987.0790401325
13 JALAN NOVENA UTARA ENG AUN PARK SINGAPORE 308491,13,ENG AUN PARK,1.3238233017706,103.842363342019,103.842363342019,308491,JALAN NOVENA UTARA,ENG AUN PARK,29006.5914658019,34007.1735610384
14 JALAN NOVENA UTARA ENG AUN PARK SINGAPORE 308492,14,ENG AUN PARK,1.32370594887835,103.842663760828,103.842663760828,308492,JALAN NOVENA UTARA,ENG AUN PARK,29040.0251174001,33994.1974040065
15 JALAN NOVENA UTARA ENG AUN PARK SINGAPORE 308493,15,ENG AUN PARK,1.32387465731426,103.842374203216,103.842374203216,308493,JALAN NOVENA UTARA,ENG AUN PARK,29007.8001874639,34012.8521979991
16 JALAN NOVENA UTARA ENG AUN PARK SINGAPORE 308494,16,ENG AUN PARK,1.32376382970528,103.842664364282,103.842664364282,308494,JALAN NOVENA UTARA,ENG AUN PARK,29040.0922517879,34000.5975691639
