ADDRESS,BLK_NO,BUILDING,LATITUDE,LONGITUDE,LONGTITUDE,POSTAL,ROAD_NAME,SEARCHVAL,X,Y
400 FERNVALE LANE FERNVALE DEW SINGAPORE 790400,400,FERNVALE DEW,1.39021265869912,103.87107471697,103.87107471697,790400,FERNVALE LANE,FERNVALE DEW,32201.7655156609,41348.2017088924
401 FERNVALE LANE FERNVALE DEW SINGAPORE 790401,401,FERNVALE DEW,1.3901021265985,103.870984520752,103.870984520752,790401,FERNVALE LANE,FERNVALE DEW,32191.7280468997,41335.9794667996
402 FERNVALE LANE FERNVALE ACRES SINGAPORE 790402,402,FERNVALE ACRES,1.38830347916489,103.871173506409,103.871173506409,790402,FERNVALE LANE,FERNVALE ACRES,32212.7628729884,41137.0944480486
403 FERNVALE LANE FERN SPRING SINGAPORE 790403,403,FERN SPRING,1.38862083789937,103.873023996484,103.873023996484,790403,FERNVALE LANE,FERN SPRING,32418.6978802374,41172.1897514183
404 FERNVALE LANE FERN SPRING SINGAPORE 790404,404,FERN SPRING,1.38781928631776,103.873315930358,103.873315930358,790404,FERNVALE LANE,FERN SPRING,32451.1878366396,41083.5587690845
405 FERNVALE LANE FERN SPRING SINGAPORE 790405,405,FERN SPRING,1.38927188903206,103.874030354641,103.874030354641,790405,FERNVALE LANE,FERN SPRING,32530.6912663383,41244.1816058662
406 FERNVALE ROAD FERN VIEW SINGAPORE 790406,406,FERN VIEW,1.38816890086127,103.874826336185,103.874826336185,790406,FERNVALE ROAD,FERN VIEW,32619.2758175842,41122.2202765625
407 FERNVALE ROAD FERN VIEW SINGAPORE 790407,407,FERN VIEW,1.38854074796807,103.875052881507,103.875052881507,790407,FERNVALE ROAD,FERN VIEW,32644.4866568502,41163.3376979716
408 FERNVALE ROAD CORAL VALE SINGAPORE 790408,408,CORAL VALE,1.38912936970128,103.876875468624,103.876875468624,790408,FERNVALE ROAD,CORAL VALE,32847.3158057537,41228.4281797204
410 FERNVALE ROAD ANG MO KIO TOWN COUNCIL (FERNVALE OFFICE) SINGAPORE 790410,410,ANG MO KIO TOWN COUNCIL (FERNVALE OFFICE),1.39021771512232,103.87668094681,103.87668094681,790410,FERNVALE ROAD,ANG MO KIO TOWN COUNCIL (FERNVALE OFFICE),32825.6658434318,41348.771533953
411 FERNVALE ROAD CORAL SPRING SINGAPORE 790411,411,CORAL SPRING,1.38982790275796,103.876844448074,103.876844448074,790411,FERNVALE ROAD,CORAL SPRING,32843.8621985437,41305.6683814731
412 FERNVALE LINK CORAL VALE SINGAPORE 790412,412,CORAL VALE,1.38943818402848,103.87792381251,103.87792381251,790412,FERNVALE LINK,CORAL VALE,32963.9822355928,41262.5774875246
413 FERNVALE LINK CORAL VALE SINGAPORE 790413,413,CORAL VALE,1.38948446159903,103.878294595393,103.878294595393,790413,FERNVALE LINK,CORAL VALE,33005.2454578793,41267.6954100877
414 FERNVALE LINK FERNVALE RIVERBOW SINGAPORE 790414,414,FERNVALE RIVERBOW,1.38976181454591,103.880095373369,103.880095373369,790414,FERNVALE LINK,FERNVALE RIVERBOW,33205.6480527958,41298.3675924595
415 FERNVALE LINK FERNVALE RIVERBOW SINGAPORE 790415,415,FERNVALE RIVERBOW,1.38923617679652,103.879906183759,103.879906183759,790415,FERNVALE LINK,FERNVALE RIVERBOW,33184.5948540419,41240.2448005639
416 FERNVALE LINK FERNVALE RIVERBOW SINGAPORE 790416,416,FERNVALE RIVERBOW,1.39024804995207,103.880154762176,103.880154762176,790416,FERNVALE LINK,FERNVALE RIVERBOW,33212.256189269,41352.1331870295
417 FERNVALE LINK FERNVALE RIVERWALK SINGAPORE 790417,417,FERNVALE RIVERWALK,1.39158622983505,103.879874611419,103.879874611419,790417,FERNVALE LINK,FERNVALE RIVERWALK,33181.0761403991,41500.1017667856
418 FERNVALE LINK FERNVALE RIVERWALK SINGAPORE 790418,418,FERNVALE RIVERWALK,1.39138086184229,103.880533787713,103.880533787713,790418,FERNVALE LINK,FERNVALE RIVERWALK,33254.4342916319,41477.394664865
430 FERNVALE LINK FERNVALE RIDGE SINGAPORE 790430,430,FERNVALE RIDGE,1.39427999598034,103.87815212939,103.87815212939,790430,FERNVALE LINK,FERNVALE RIDGE,32989.3807666255,41797.9611551389
431 FERNVALE LINK FERNVALE RIDGE SINGAPORE 790431,431,FERNVALE RIDGE,1.39427379966735,103.878626383169,103.878626383169,790431,FERNVALE LINK,FERNVALE RIDGE,33042.1589590292,41797.277007902
432 SENGKANG WEST WAY FERNVALE PALMS SINGAPORE 790432,432,FERNVALE PALMS,1.39439736427614,103.877202781159,103.877202781159,790432,SENGKANG WEST WAY,FERNVALE PALMS,32883.7306116037,41810.9371608309
433 SENGKANG WEST WAY FERNVALE PALMS SINGAPORE 790433,433,FERNVALE PALMS,1.39439933034302,103.877675622721,103.877675622721,790433,SENGKANG WEST WAY,FERNVALE PALMS,32936.3516223682,41811.1555443332
434 FERNVALE ROAD FERNVALE RESIDENCE SINGAPORE 790434,434,FERNVALE RESIDENCE,1.3939583046279,103.876544200662,103.876544200662,790434,FERNVALE ROAD,FERNVALE RESIDENCE,32810.4402001193,41762.3868003916
435 FERNVALE ROAD FERNVALE RESIDENCE SINGAPORE 790435,435,FERNVALE RESIDENCE,1.39322994044366,103.876946093406,103.876946093406,790435,FERNVALE ROAD,FERNVALE RESIDENCE,32855.1670483183,41681.8487807419
436 FERNVALE ROAD FERNVALE GROVE SINGAPORE 790436,436,FERNVALE GROVE,1.39253429607977,103.876654122476,103.876654122476,790436,FERNVALE ROAD,FERNVALE GROVE,32822.6759417327,41604.9273311254
437 FERNVALE ROAD FERNVALE GROVE SINGAPORE 790437,437,FERNVALE GROVE,1.39255040546533,103.876330394724,103.876330394724,790437,FERNVALE ROAD,FERNVALE GROVE,32786.6492622374,41606.7079663407
438 SENGKANG WEST AVENUE FERNVALE COURT SINGAPORE 790438,438,FERNVALE COURT,1.39219557136146,103.877963163699,103.877963163699,790438,SENGKANG WEST AVENUE,FERNVALE COURT,32968.3557473635,41567.4755744208
439 SENGKANG WEST AVENUE FERNVALE COURT SINGAPORE 790439,439,FERNVALE COURT,1.39219166522093,103.87758659777,103.87758659777,790439,SENGKANG WEST AVENUE,FERNVALE COURT,32926.4489066722,41567.0428633261
440 FERNVALE LINK FERNVALE GARDENS SINGAPORE 790440,440,FERNVALE GARDENS,1.39296722349168,103.878324712307,103.878324712307,790440,FERNVALE LINK,FERNVALE GARDENS,33008.5897371322,41652.8017469514
441 FERNVALE ROAD FERNVALE VISTA SINGAPORE 790441,441,FERNVALE VISTA,1.39166012339643,103.87509501996,103.87509501996,790441,FERNVALE ROAD,FERNVALE VISTA,32649.1700219708,41508.2625902873
442 FERNVALE ROAD FERNVALE VISTA SINGAPORE 790442,442,FERNVALE VISTA,1.39172153856343,103.874774045825,103.874774045825,790442,FERNVALE ROAD,FERNVALE VISTA,32613.4496847382,41515.0529400222
443 FERNVALE ROAD FERNVALE VISTA SINGAPORE 790443,443,FERNVALE VISTA,1.3917288756512,103.87407389201,103.87407389201,790443,FERNVALE ROAD,FERNVALE VISTA,32535.5317222942,41515.8628809974
445 FERNVALE ROAD FERNVALE VISTA SINGAPORE 790445,445,FERNVALE VISTA,1.39192466552766,103.874288678946,103.874288678946,790445,FERNVALE ROAD,FERNVALE VISTA,32559.4343187679,41537.5127525162
446 JALAN KAYU FERNVALE LODGE SINGAPORE 790446,446,FERNVALE LODGE,1.39206063700237,103.873276633444,103.873276633444,790446,JALAN KAYU,FERNVALE LODGE,32446.806667068,41552.5458611846
448 SENGKANG WEST WAY FERNVALE CREST SINGAPORE 790448,448,FERNVALE CREST,1.39316539928247,103.873146095378,103.873146095378,790448,SENGKANG WEST WAY,FERNVALE CREST,32432.2774295239,41674.7046588138
449 SENGKANG WEST WAY FERNVALE CREST SINGAPORE 790449,449,FERNVALE CREST,1.39370050902637,103.873110198959,103.873110198959,790449,SENGKANG WEST WAY,FERNVALE CREST,32428.2816319214,41733.8743294626
450 SENGKANG WEST WAY FERNVALE CREST SINGAPORE 790450,450,FERNVALE CREST,1.39420048862096,103.873417832678,103.873417832678,790450,SENGKANG WEST WAY,FERNVALE CREST,32462.5162651734,41789.1601335127
451 SENGKANG WEST WAY FERNVALE FOLIAGE SINGAPORE 790451,451,FERNVALE FOLIAGE,1.39402599269318,103.874088270885,103.874088270885,790451,SENGKANG WEST WAY,FERNVALE FOLIAGE,32537.1275109323,41769.8665337246
452 SENGKANG WEST WAY FERNVALE FOLIAGE SINGAPORE 790452,452,FERNVALE FOLIAGE,1.39344560119019,103.874674076952,103.874674076952,790452,SENGKANG WEST WAY,FERNVALE FOLIAGE,32602.3211157005,41705.6909017842
453 FERNVALE ROAD FERNVALE FLORA SINGAPORE 790453,453,FERNVALE FLORA,1.39396348134452,103.875363212262,103.875363212262,790453,FERNVALE ROAD,FERNVALE FLORA,32679.0117719406,41762.95683733
454 FERNVALE ROAD FERNVALE FLORA SINGAPORE 790454,454,FERNVALE FLORA,1.39428551595525,103.875568931709,103.875568931709,790454,FERNVALE ROAD,FERNVALE FLORA,32701.9049916938,41798.5662121326
455 SENGKANG WEST AVENUE FERNVALE WOODS SINGAPORE 790455,455,FERNVALE WOODS,1.39183688254074,103.871190376558,103.871190376558,790455,SENGKANG WEST AVENUE,FERNVALE WOODS,32214.6340397419,41527.8003921676
456 SENGKANG WEST ROAD FERNVALE WOODS SINGAPORE 790456,456,FERNVALE WOODS,1.39186137184774,103.869821737636,103.869821737636,790456,SENGKANG WEST ROAD,FERNVALE WOODS,32062.3224280737,41530.5058958922
457 SENGKANG WEST ROAD FERNVALE WOODS SINGAPORE 790457,457,FERNVALE WOODS,1.39251783992416,103.86971234202,103.86971234202,790457,SENGKANG WEST ROAD,FERNVALE WOODS,32050.1470105518,41603.09463498
458 SENGKANG WEST ROAD FERNVALE WOODS SINGAPORE 790458,458,FERNVALE WOODS,1.39290477851356,103.870660512054,103.870660512054,790458,SENGKANG WEST ROAD,FERNVALE WOODS,32155.6651971638,41645.8820015863
459 SENGKANG WEST WAY FERNVALE GLADES SINGAPORE 790459,459,FERNVALE GLADES,1.3932996986936,103.869441340248,103.869441340248,790459,SENGKANG WEST WAY,FERNVALE GLADES,32019.9867505888,41689.5481688324
460 SENGKANG WEST WAY FERNVALE GLADES SINGAPORE 790460,460,FERNVALE GLADES,1.3942609344157,103.869618891317,103.869618891317,790460,SENGKANG WEST WAY,FERNVALE GLADES,32039.7442072285,41795.8370691128
461 SENGKANG WEST WAY FERNVALE GLADES SINGAPORE 790461,461,FERNVALE GLADES,1.39486241862132,103.871789987237,103.871789987237,790461,SENGKANG WEST WAY,FERNVALE GLADES,32281.3573884079,41862.3499947563
462 SENGKANG WEST WAY FERNVALE GLADES SINGAPORE 790462,462,FERNVALE GLADES,1.39412126846211,103.871451905054,103.871451905054,790462,SENGKANG WEST WAY,FERNVALE GLADES,32243.7346478635,41780.396734992
463 SENGKANG WEST WAY FERNVALE GLADES SINGAPORE 790463,463,FERNVALE GLADES,1.39361409938574,103.872075276134,103.872075276134,790463,SENGKANG WEST WAY,FERNVALE GLADES,32313.1085335957,41724.317667624
464 FERNVALE ROAD FERNVALE VINES SINGAPORE 790464,464,FERNVALE VINES,1.39759093349331,103.875979428173,103.875979428173,790464,FERNVALE ROAD,FERNVALE VINES,32747.5811952017,42164.0634660143
465 FERNVALE ROAD FERNVALE VINES SINGAPORE 790465,465,FERNVALE VINES,1.39814678014706,103.876538391161,103.876538391161,790465,FERNVALE ROAD,FERNVALE VINES,32809.7851706836,42225.5273287576
466 FERNVALE ROAD FERNVALE VINES SINGAPORE 790466,466,FERNVALE VINES,1.39787535537175,103.877528333579,103.877528333579,790466,FERNVALE ROAD,FERNVALE VINES,32919.9530644184,42195.516592633
467 FERNVALE LINK FERNVALE LEA SINGAPORE 790467,467,FERNVALE LEA,1.39758590624145,103.878744626894,103.878744626894,790467,FERNVALE LINK,FERNVALE LEA,33055.3108519744,42163.5133454092
468 FERNVALE LINK FERNVALE LEA SINGAPORE 790468,468,FERNVALE LEA,1.3966501541936,103.87821408445,103.87821408445,790468,FERNVALE LINK,FERNVALE LEA,32996.2705466868,42060.0414561052
469 SENGKANG WEST WAY FERNVALE LEA SINGAPORE 790469,469,FERNVALE LEA,1.39607331822407,103.878265567868,103.878265567868,790469,SENGKANG WEST WAY,FERNVALE LEA,33002.0011840444,41996.2579458933
470 FERNVALE LINK FERNVALE RIVERGROVE SINGAPORE 790470,470,FERNVALE RIVERGROVE,1.39696692089973,103.879438829821,103.879438829821,790470,FERNVALE LINK,FERNVALE RIVERGROVE,33132.5677011181,42095.0705633927
472 FERNVALE STREET FERNVALE RIVERGROVE SINGAPORE 790472,472,FERNVALE RIVERGROVE,1.39690241860157,103.881708610747,103.881708610747,790472,FERNVALE STREET,FERNVALE RIVERGROVE,33385.1641952815,42087.9433007296
473 FERNVALE STREET FERNVALE RIVERGROVE SINGAPORE 790473,473,FERNVALE RIVERGROVE,1.39779874741053,103.881698806174,103.881698806174,790473,FERNVALE STREET,FERNVALE RIVERGROVE,33384.0710367812,42187.0548145697
400A FERNVALE LANE FERNVALE DEW SINGAPORE 791400,400A,FERNVALE DEW,1.38975752137765,103.870369949802,103.870369949802,791400,FERNVALE LANE,FERNVALE DEW,32123.3349043764,41297.8736795019
401A FERNVALE LANE FERNVALE DEW SINGAPORE 791401,401A,FERNVALE DEW,1.39076244927694,103.869984956677,103.869984956677,791401,FERNVALE LANE,FERNVALE DEW,32080.488454666,41408.9928656965
402A FERNVALE LANE FERNVALE ACRES SINGAPORE 791402,402A,FERNVALE ACRES,1.38883429291912,103.871071423976,103.871071423976,791402,FERNVALE LANE,FERNVALE ACRES,32201.4014826203,41195.7889718898
403A FERNVALE LANE FERN SPRING SINGAPORE 791403,403A,FERN SPRING,1.3889306090651,103.873208570293,103.873208570293,791403,FERNVALE LANE,FERN SPRING,32439.237976132,41206.4430297464
404A FERNVALE LANE FERN SPRING SINGAPORE 791404,404A,FERN SPRING,1.38834821726981,103.873814853605,103.873814853605,791404,FERNVALE LANE,FERN SPRING,32506.7105481988,41142.0462296493
405A FERNVALE LANE FERN SPRING SINGAPORE 791405,405A,FERN SPRING,1.38882291640561,103.873859040678,103.873859040678,791405,FERNVALE LANE,FERN SPRING,32511.6270978656,41194.5361497756
406A FERNVALE ROAD FERN VIEW SINGAPORE 791406,406A,FERN VIEW,1.38801898266423,103.87429503286,103.87429503286,791406,FERNVALE ROAD,FERN VIEW,32560.1489155954,41105.6420478616
407A FERNVALE ROAD FERN VIEW SINGAPORE 791407,407A,FERN VIEW,1.38826853302736,103.875272052202,103.875272052202,791407,FERNVALE ROAD,FERN VIEW,32668.8780509923,41133.237973975
408A FERNVALE ROAD CORAL VALE SINGAPORE 791408,408A,CORAL VALE,1.38876434017521,103.876211939865,103.876211939865,791408,FERNVALE ROAD,CORAL VALE,32773.4743958926,41188.0637046751
409A FERNVALE ROAD CAMBRIDGE@FERNVALE PTE. LTD. SINGAPORE 791409,409A,CAMBRIDGE@FERNVALE PTE. LTD.,1.38906494156565,103.877151925492,103.877151925492,791409,FERNVALE ROAD,CAMBRIDGE@FERNVALE PTE. LTD.,32878.0820004828,41221.3046097513
410A FERNVALE ROAD CORAL SPRING SINGAPORE 791410,410A,CORAL SPRING,1.39005269523174,103.875940509386,103.875940509386,791410,FERNVALE ROAD,CORAL SPRING,32743.265132064,41330.5229665693
411A FERNVALE ROAD CORAL SPRING SINGAPORE 791411,411A,CORAL SPRING,1.39054817088696,103.876908514512,103.876908514512,791411,FERNVALE ROAD,CORAL SPRING,32850.9904903164,41385.3121335451
412A FERNVALE LINK CORAL VALE SINGAPORE 791412,412A,CORAL VALE,1.38923123641708,103.877906058862,103.877906058862,791412,FERNVALE LINK,CORAL VALE,32962.0069167074,41239.694225939
413A FERNVALE LINK CORAL VALE SINGAPORE 791413,413A,CORAL VALE,1.38930680618338,103.878729319261,103.878729319261,791413,FERNVALE LINK,CORAL VALE,33053.6249555489,41248.0520940162
414A FERNVALE LINK FERNVALE RIVERBOW SINGAPORE 791414,414A,FERNVALE RIVERBOW,1.38958310807082,103.87947708432,103.87947708432,791414,FERNVALE LINK,FERNVALE RIVERBOW,33136.8409047909,41278.6057772301
415A FERNVALE LINK FERNVALE RIVERBOW SINGAPORE 791415,415A,FERNVALE RIVERBOW,1.3890450841015,103.879415312113,103.879415312113,791415,FERNVALE LINK,FERNVALE RIVERBOW,33129.9676207807,41219.1136617512
416A FERNVALE LINK FERNVALE RIVERBOW SINGAPORE 791416,416A,FERNVALE RIVERBOW,1.3906119627657,103.879963560438,103.879963560438,791416,FERNVALE LINK,FERNVALE RIVERBOW,33190.97713082,41392.3724131584
417A FERNVALE LINK FERNVALE RIVERWALK SINGAPORE 791417,417A,FERNVALE RIVERWALK,1.39157654101303,103.880697269897,103.880697269897,791417,FERNVALE LINK,FERNVALE RIVERWALK,33272.6272869967,41499.0322475806
418A FERNVALE LINK FERNVALE RIVERWALK SINGAPORE 791418,418A,FERNVALE RIVERWALK,1.39100745746343,103.879606736157,103.879606736157,791418,FERNVALE LINK,FERNVALE RIVERWALK,33151.266383687,41436.1034446936
430A FERNVALE LINK FERNVALE RIDGE SINGAPORE 791430,430A,FERNVALE RIDGE,1.39387016239186,103.878517201425,103.878517201425,791430,FERNVALE LINK,FERNVALE RIDGE,33030.0093298294,41752.644595813
431A FERNVALE LINK FERNVALE RIDGE SINGAPORE 791431,431A,FERNVALE RIDGE,1.39423667678153,103.87884206758,103.87884206758,791431,FERNVALE LINK,FERNVALE RIDGE,33066.1618636008,41793.1726087742
432A SENGKANG WEST WAY FERNVALE PALMS SINGAPORE 791432,432A,FERNVALE PALMS,1.39475047645333,103.877202311729,103.877202311729,791432,SENGKANG WEST WAY,FERNVALE PALMS,32883.6776426323,41849.9825268779
433A SENGKANG WEST WAY FERNVALE PALMS SINGAPORE 791433,433A,FERNVALE PALMS,1.39494947298112,103.877566961287,103.877566961287,791433,SENGKANG WEST WAY,FERNVALE PALMS,32924.2578981342,41871.9873207733
434A FERNVALE ROAD FERNVALE RESIDENCE SINGAPORE 791434,434A,FERNVALE RESIDENCE,1.39437366578651,103.876322418463,103.876322418463,791434,FERNVALE ROAD,FERNVALE RESIDENCE,32785.7579306532,41808.3148940615
435A FERNVALE ROAD FERNVALE RESIDENCE SINGAPORE 791435,435A,FERNVALE RESIDENCE,1.39339897949587,103.876290547918,103.876290547918,791435,FERNVALE ROAD,FERNVALE RESIDENCE,32782.2131260075,41700.5389277395
436A FERNVALE ROAD FERNVALE GROVE SINGAPORE 791436,436A,FERNVALE GROVE,1.39283366745998,103.876517997854,103.876517997854,791436,FERNVALE ROAD,FERNVALE GROVE,32807.5264526661,41638.03003259
438A SENGKANG WEST AVENUE FERNVALE COURT SINGAPORE 791438,438A,FERNVALE COURT,1.39274604000734,103.877421746156,103.877421746156,791438,SENGKANG WEST AVENUE,FERNVALE COURT,32908.1019380735,41628.34249199
439A SENGKANG WEST AVENUE FERNVALE COURT SINGAPORE 791439,439A,FERNVALE COURT,1.39187523087505,103.877855405656,103.877855405656,791439,SENGKANG WEST AVENUE,FERNVALE COURT,32956.3643591823,41532.0537097771
440A FERNVALE LINK FERNVALE GARDENS SINGAPORE 791440,440A,FERNVALE GARDENS,1.39318853941818,103.878692030242,103.878692030242,791440,FERNVALE LINK,FERNVALE GARDENS,33049.4669215539,41677.2745317016
441A FERNVALE ROAD FERNVALE VISTA SINGAPORE 791441,441A,FERNVALE VISTA,1.39109783626622,103.875166223525,103.875166223525,791441,FERNVALE ROAD,FERNVALE VISTA,32657.0951486835,41446.0878536776
443A FERNVALE ROAD FERNVALE VISTA SINGAPORE 791443,443A,FERNVALE VISTA,1.39118065833884,103.874321610143,103.874321610143,791443,FERNVALE ROAD,FERNVALE VISTA,32563.1005585641,41455.2442517001
445A FERNVALE ROAD FERNVALE VISTA SINGAPORE 791445,445A,FERNVALE VISTA,1.39222013843694,103.874409781406,103.874409781406,791445,FERNVALE ROAD,FERNVALE VISTA,32572.9108661059,41570.1848919112
446A JALAN KAYU FERNVALE LODGE SINGAPORE 791446,446A,FERNVALE LODGE,1.39191360982297,103.872848683736,103.872848683736,791446,JALAN KAYU,FERNVALE LODGE,32399.1817502324,41536.2875348032
447A JALAN KAYU DBS JALAN KAYU 447A SINGAPORE 791447,447A,DBS JALAN KAYU 447A,1.39213828470085,103.872490555974,103.872490555974,791447,JALAN KAYU,DBS JALAN KAYU 447A,32359.3264129404,41561.1302851178
448A SENGKANG WEST WAY FERNVALE CREST SINGAPORE 791448,448A,FERNVALE CREST,1.39293649855269,103.87299848136,103.87299848136,791448,SENGKANG WEST WAY,FERNVALE CREST,32415.8503591334,41649.3936930578
450A SENGKANG WEST WAY FERNVALE CREST SINGAPORE 791450,450A,FERNVALE CREST,1.39446814841577,103.873506723327,103.873506723327,791450,SENGKANG WEST WAY,FERNVALE CREST,32472.4081146643,41818.7567733526
451A SENGKANG WEST WAY FERNVALE FOLIAGE SINGAPORE 791451,451A,FERNVALE FOLIAGE,1.39434919388296,103.874053796487,103.874053796487,791451,SENGKANG WEST WAY,FERNVALE FOLIAGE,32533.2903478323,41805.6044263877
452A SENGKANG WEST WAY FERNVALE FOLIAGE SINGAPORE 791452,452A,FERNVALE FOLIAGE,1.39354732029357,103.874486020747,103.874486020747,791452,SENGKANG WEST WAY,FERNVALE FOLIAGE,32581.3927421113,41716.938121317
453A FERNVALE ROAD FERNVALE FLORA SINGAPORE 791453,453A,FERNVALE FLORA,1.39447883247668,103.875558391505,103.875558391505,791453,FERNVALE ROAD,FERNVALE FLORA,32700.7316230368,41819.9421583973
455A SENGKANG WEST AVENUE FERNVALE WOODS SINGAPORE 791455,455A,FERNVALE WOODS,1.39157665293201,103.870444622949,103.870444622949,791455,SENGKANG WEST AVENUE,FERNVALE WOODS,32131.6418919712,41499.0241962969
456A SENGKANG WEST ROAD FERNVALE WOODS SINGAPORE 791456,456A,FERNVALE WOODS,1.39165965999065,103.869882501471,103.869882501471,791456,SENGKANG WEST ROAD,FERNVALE WOODS,32069.0849918006,41508.2017213721
457A SENGKANG WEST ROAD FERNVALE WOODS SINGAPORE 791457,457A,FERNVALE WOODS,1.39249836351383,103.870188572891,103.870188572891,791457,SENGKANG WEST ROAD,FERNVALE WOODS,32103.1452814657,41600.9418549053
458A SENGKANG WEST ROAD FERNVALE WOODS SINGAPORE 791458,458A,FERNVALE WOODS,1.39296840561775,103.869572197299,103.869572197299,791458,SENGKANG WEST ROAD,FERNVALE WOODS,32034.5499790786,41652.915675642
459A SENGKANG WEST WAY FERNVALE GLADES SINGAPORE 791459,459A,FERNVALE GLADES,1.3932870281475,103.87007512388,103.87007512388,791459,SENGKANG WEST WAY,FERNVALE GLADES,32090.5185380382,41688.1482140496
460A SENGKANG WEST WAY FERNVALE GLADES SINGAPORE 791460,460A,FERNVALE GLADES,1.39475081583818,103.869528324762,103.869528324762,791460,SENGKANG WEST WAY,FERNVALE GLADES,32029.6645146301,41850.0055305455
461A SENGKANG WEST WAY FERNVALE GLADES SINGAPORE 791461,461A,FERNVALE GLADES,1.39467429682163,103.870783100671,103.870783100671,791461,SENGKANG WEST WAY,FERNVALE GLADES,32169.304586255,41841.5466279406
462A SENGKANG WEST WAY FERNVALE GLADES SINGAPORE 791462,462A,FERNVALE GLADES,1.39357192537353,103.871307614787,103.871307614787,791462,SENGKANG WEST WAY,FERNVALE GLADES,32227.6780273244,41719.6528870445
463A SENGKANG WEST WAY FERNVALE GLADES SINGAPORE 791463,463A,FERNVALE GLADES,1.39338769365713,103.871828134588,103.871828134588,791463,SENGKANG WEST WAY,FERNVALE GLADES,32285.6053485824,41699.2824129313
464A FERNVALE ROAD FERNVALE VINES SINGAPORE 791464,464A,FERNVALE VINES,1.39731706496198,103.876117623094,103.876117623094,791464,FERNVALE ROAD,FERNVALE VINES,32762.9609933561,42133.7807417884
465A FERNVALE ROAD FERNVALE VINES SINGAPORE 791465,465A,FERNVALE VINES,1.39823742699044,103.876906950578,103.876906950578,791465,FERNVALE ROAD,FERNVALE VINES,32850.8007100588,42235.5513585322
466A FERNVALE ROAD FERNVALE VINES SINGAPORE 791466,466A,FERNVALE VINES,1.39754657830518,103.877514874921,103.877514874921,791466,FERNVALE ROAD,FERNVALE VINES,32918.455979676,42159.1620503385
467A FERNVALE LINK FERNVALE LEA SINGAPORE 791467,467A,FERNVALE LEA,1.39798359035227,103.8784589917,103.8784589917,791467,FERNVALE LINK,FERNVALE LEA,33023.5226285066,42207.4866418857
468A FERNVALE LINK FERNVALE LEA SINGAPORE 791468,468A,FERNVALE LEA,1.39747908543717,103.878500081571,103.878500081571,791468,FERNVALE LINK,FERNVALE LEA,33028.0964537943,42151.7011134233
469A SENGKANG WEST WAY FERNVALE LEA SINGAPORE 791469,469A,FERNVALE LEA,1.39589511654296,103.878083108343,103.878083108343,791469,SENGKANG WEST WAY,FERNVALE LEA,32981.696240115,41976.5529134013
470A FERNVALE LINK FERNVALE RIVERGROVE SINGAPORE 791470,470A,FERNVALE RIVERGROVE,1.39647838386976,103.879494944074,103.879494944074,791470,FERNVALE LINK,FERNVALE RIVERGROVE,33138.8135298258,42041.0507177599
471A FERNVALE STREET FERNVALE RIVERGROVE SINGAPORE 791471,471A,FERNVALE RIVERGROVE,1.39604094734393,103.880735419984,103.880735419984,791471,FERNVALE STREET,FERNVALE RIVERGROVE,33276.8629583698,41992.6839326434
472A FERNVALE STREET FERNVALE RIVERGROVE SINGAPORE 791472,472A,FERNVALE RIVERGROVE,1.39740224240408,103.881338084424,103.881338084424,791472,FERNVALE STREET,FERNVALE RIVERGROVE,33343.9284260562,42143.2104597036
473A FERNVALE STREET FERNVALE RIVERGROVE SINGAPORE 791473,473A,FERNVALE RIVERGROVE,1.39785974876811,103.881232764244,103.881232764244,791473,FERNVALE STREET,FERNVALE RIVERGROVE,33332.2066650735,42193.7989753615
400B FERNVALE LANE FERNVALE DEW SINGAPORE 792400,400B,FERNVALE DEW,1.39002892079376,103.870040031655,103.870040031655,792400,FERNVALE LANE,FERNVALE DEW,32086.618841284,41327.8830838334
401B FERNVALE LANE FERNVALE DEW SINGAPORE 792401,401B,FERNVALE DEW,1.39056962100536,103.870471445527,103.870471445527,792401,FERNVALE LANE,FERNVALE DEW,32134.628645801,41387.6717347503
402B FERNVALE LANE FERNVALE ACRES SINGAPORE 792402,402B,FERNVALE ACRES,1.3882200185782,103.870816336704,103.870816336704,792402,FERNVALE LANE,FERNVALE ACRES,32173.0146540906,41127.8651647214
403B FERNVALE LANE FERN SPRING SINGAPORE 792403,403B,FERN SPRING,1.38879143490193,103.872979832028,103.872979832028,792403,FERNVALE LANE,FERN SPRING,32413.7826320939,41191.0534247663
404B FERNVALE LANE FERN SPRING SINGAPORE 792404,404B,FERN SPRING,1.38829654333715,103.873546044227,103.873546044227,792404,FERNVALE LANE,FERN SPRING,32476.7956405114,41136.3318764679
405B FERNVALE LANE FERN SPRING SINGAPORE 792405,405B,FERN SPRING,1.38900200354175,103.873670202802,103.873670202802,792405,FERNVALE LANE,FERN SPRING,32490.6115524834,41214.3383424953
406B FERNVALE ROAD FERN VIEW SINGAPORE 792406,406B,FERN VIEW,1.38842869026139,103.87432292478,103.87432292478,792406,FERNVALE ROAD,FERN VIEW,32563.2521406263,41150.9455011506
407B FERNVALE ROAD FERN VIEW SINGAPORE 792407,407B,FERN VIEW,1.38899739157777,103.875147967354,103.875147967354,792407,FERNVALE ROAD,FERN VIEW,32655.0675872583,41213.8312326968
408B FERNVALE ROAD CORAL VALE SINGAPORE 792408,408B,CORAL VALE,1.3890042738829,103.876069073536,103.876069073536,792408,FERNVALE ROAD,CORAL VALE,32757.5747451177,41214.5940766893
409B FERNVALE ROAD CORAL VALE SINGAPORE 792409,409B,CORAL VALE,1.38949816122418,103.877011997742,103.877011997742,792409,FERNVALE ROAD,CORAL VALE,32862.5089715207,41269.207568286
410B FERNVALE ROAD CORAL SPRING SINGAPORE 792410,410B,CORAL SPRING,1.38978938889476,103.876096713603,103.876096713603,792410,FERNVALE ROAD,CORAL SPRING,32760.6491550282,41301.4081930332
411B FERNVALE ROAD CORAL SPRING SINGAPORE 792411,411B,CORAL SPRING,1.39016261835765,103.877056202025,103.877056202025,792411,FERNVALE ROAD,CORAL SPRING,32867.4269740507,41342.679981159
412B FERNVALE LINK CORAL VALE SINGAPORE 792412,412B,CORAL VALE,1.38972509794045,103.877958882809,103.877958882809,792412,FERNVALE LINK,CORAL VALE,32967.8845051257,41294.3030562662
413B FERNVALE LINK CORAL VALE SINGAPORE 792413,413B,CORAL VALE,1.38971066595273,103.878686138516,103.878686138516,792413,FERNVALE LINK,CORAL VALE,33048.8186418787,41292.7087810282
414B FERNVALE LINK FERNVALE RIVERBOW SINGAPORE 792414,414B,FERNVALE RIVERBOW,1.39001961783905,103.879574314696,103.879574314696,792414,FERNVALE LINK,FERNVALE RIVERBOW,33147.6604377143,41326.8730412181
415B FERNVALE LINK FERNVALE RIVERBOW SINGAPORE 792415,415B,FERNVALE RIVERBOW,1.38884403585275,103.880083476817,103.880083476817,792415,FERNVALE LINK,FERNVALE RIVERBOW,33204.3261288749,41196.8842188809
416B FERNVALE LINK FERNVALE RIVERBOW SINGAPORE 792416,416B,FERNVALE RIVERBOW,1.39048519034443,103.880509545623,103.880509545623,792416,FERNVALE LINK,FERNVALE RIVERBOW,33251.7384433942,41378.3557639178
418B FERNVALE LINK FERNVALE RIVERWALK SINGAPORE 792418,418B,FERNVALE RIVERWALK,1.39101485658152,103.880193298835,103.880193298835,792418,FERNVALE LINK,FERNVALE RIVERWALK,33216.5431346074,41436.9228898156
430B FERNVALE LINK FERNVALE RIDGE SINGAPORE 792430,430B,FERNVALE RIDGE,1.39390769406304,103.8782232872,103.8782232872,792430,FERNVALE LINK,FERNVALE RIDGE,32997.3004753692,41756.7940337006
432B SENGKANG WEST WAY FERNVALE PALMS SINGAPORE 792432,432B,FERNVALE PALMS,1.39397232900968,103.877135274753,103.877135274753,792432,SENGKANG WEST WAY,FERNVALE PALMS,32876.2189152809,41763.9387609884
433B SENGKANG WEST WAY FERNVALE PALMS SINGAPORE 792433,433B,FERNVALE PALMS,1.39388894272879,103.877494624525,103.877494624525,792433,SENGKANG WEST WAY,FERNVALE PALMS,32916.2099742116,41754.7190726139
434B FERNVALE ROAD FERNVALE RESIDENCE SINGAPORE 792434,434B,FERNVALE RESIDENCE,1.39460960429021,103.876585517065,103.876585517065,792434,FERNVALE ROAD,FERNVALE RESIDENCE,32815.0368474657,41834.4043220896
435B FERNVALE ROAD FERNVALE RESIDENCE SINGAPORE 792435,435B,FERNVALE RESIDENCE,1.39339364366596,103.876644854346,103.876644854346,792435,FERNVALE ROAD,FERNVALE RESIDENCE,32821.6427743761,41699.9496403635
436B FERNVALE ROAD FERNVALE GROVE SINGAPORE 792436,436B,FERNVALE GROVE,1.39287835979949,103.876975719617,103.876975719617,792436,FERNVALE ROAD,FERNVALE GROVE,32858.4647754123,41642.9728245996
438B SENGKANG WEST AVENUE FERNVALE COURT SINGAPORE 792438,438B,FERNVALE COURT,1.39274518333866,103.877720031685,103.877720031685,792438,SENGKANG WEST AVENUE,FERNVALE COURT,32941.2971990323,41628.2483888287
439B SENGKANG WEST AVENUE FERNVALE COURT SINGAPORE 792439,439B,FERNVALE COURT,1.39197653860922,103.878309805797,103.878309805797,792439,SENGKANG WEST AVENUE,FERNVALE COURT,33006.932928239,41543.2567683216
440B FERNVALE LINK FERNVALE GARDENS SINGAPORE 792440,440B,FERNVALE GARDENS,1.39329062882167,103.878138964178,103.878138964178,792440,FERNVALE LINK,FERNVALE GARDENS,32987.9177333647,41688.5618865825
441B FERNVALE ROAD FERNVALE VISTA SINGAPORE 792441,441B,FERNVALE VISTA,1.39121038063109,103.874688908059,103.874688908059,792441,FERNVALE ROAD,FERNVALE VISTA,32603.9759571748,41458.5315060709
443B FERNVALE ROAD FERNVALE VISTA SINGAPORE 792443,443B,FERNVALE VISTA,1.39118380458731,103.873946079101,103.873946079101,792443,FERNVALE ROAD,FERNVALE VISTA,32521.3088572817,41455.5914254729
445B FERNVALE ROAD FERNVALE VISTA SINGAPORE 792445,445B,FERNVALE VISTA,1.39224716162446,103.874095130429,103.874095130429,792445,FERNVALE ROAD,FERNVALE VISTA,32537.8942897636,41573.1723721717
446B JALAN KAYU FERNVALE LODGE SINGAPORE 792446,446B,FERNVALE LODGE,1.3917668903484,103.873322981775,103.873322981775,792446,JALAN KAYU,FERNVALE LODGE,32451.9651789973,41520.0649246424
447B JALAN KAYU FERNVALE LODGE SINGAPORE 792447,447B,FERNVALE LODGE,1.39246632922429,103.873207670352,103.873207670352,792447,JALAN KAYU,FERNVALE LODGE,32439.1312209535,41597.4051318131
448B SENGKANG WEST WAY FERNVALE CREST SINGAPORE 792448,448B,FERNVALE CREST,1.39341981691827,103.873319886194,103.873319886194,792448,SENGKANG WEST WAY,FERNVALE CREST,32451.6175814718,41702.8372060116
450B SENGKANG WEST WAY FERNVALE CREST SINGAPORE 792450,450B,FERNVALE CREST,1.39404770183665,103.873345691812,103.873345691812,792450,SENGKANG WEST WAY,FERNVALE CREST,32454.4882273162,41772.2656043824
451B SENGKANG WEST WAY FERNVALE FOLIAGE SINGAPORE 792451,451B,FERNVALE FOLIAGE,1.39429893366267,103.874547411666,103.874547411666,792451,SENGKANG WEST WAY,FERNVALE FOLIAGE,32588.2232877286,41800.0478602052
452B SENGKANG WEST WAY FERNVALE FOLIAGE SINGAPORE 792452,452B,FERNVALE FOLIAGE,1.39359219975011,103.873975642578,103.873975642578,792452,SENGKANG WEST WAY,FERNVALE FOLIAGE,32524.5942955744,41721.8996794764
453B FERNVALE ROAD FERNVALE FLORA SINGAPORE 792453,453B,FERNVALE FLORA,1.3942988861693,103.875110781799,103.875110781799,792453,FERNVALE ROAD,FERNVALE FLORA,32650.9189363373,41800.0437134914
455B SENGKANG WEST AVENUE FERNVALE WOODS SINGAPORE 792455,455B,FERNVALE WOODS,1.39201619223955,103.870247728472,103.870247728472,792455,SENGKANG WEST AVENUE,FERNVALE WOODS,32109.729354891,41547.6258912347
456B SENGKANG WEST ROAD FERNVALE WOODS SINGAPORE 792456,456B,FERNVALE WOODS,1.39211572540583,103.869908748735,103.869908748735,792456,SENGKANG WEST ROAD,FERNVALE WOODS,32072.0051863333,41558.6311787739
457B SENGKANG WEST ROAD FERNVALE WOODS SINGAPORE 792457,457B,FERNVALE WOODS,1.39242177196708,103.870777707872,103.870777707872,792457,SENGKANG WEST ROAD,FERNVALE WOODS,32168.7083977796,41592.4737811014
458B SENGKANG WEST ROAD FERNVALE WOODS SINGAPORE 792458,458B,FERNVALE WOODS,1.39293801208567,103.870196701638,103.870196701638,792458,SENGKANG WEST ROAD,FERNVALE WOODS,32104.0491439952,41649.5559899863
459B SENGKANG WEST WAY FERNVALE GLADES SINGAPORE 792459,459B,FERNVALE GLADES,1.39377381328965,103.869604905627,103.869604905627,792459,SENGKANG WEST WAY,FERNVALE GLADES,32038.1886144727,41741.9736484215
460B SENGKANG WEST WAY FERNVALE GLADES SINGAPORE 792460,460B,FERNVALE GLADES,1.39472566651413,103.870098279873,103.870098279873,792460,SENGKANG WEST WAY,FERNVALE GLADES,32093.0930116614,41847.2256281171
461B SENGKANG WEST WAY FERNVALE GLADES SINGAPORE 792461,461B,FERNVALE GLADES,1.39460326745105,103.871349876898,103.871349876898,792461,SENGKANG WEST WAY,FERNVALE GLADES,32232.3794018952,41833.693569297
462B SENGKANG WEST WAY FERNVALE GLADES SINGAPORE 792462,462B,FERNVALE GLADES,1.39316760882853,103.871149472154,103.871149472154,792462,SENGKANG WEST WAY,FERNVALE GLADES,32210.0795556959,41674.945319552
463B SENGKANG WEST WAY FERNVALE GLADES SINGAPORE 792463,463B,FERNVALE GLADES,1.39275097020721,103.871832230634,103.871832230634,792463,SENGKANG WEST WAY,FERNVALE GLADES,32286.0623346008,41628.8767521698
464B FERNVALE ROAD FERNVALE VINES SINGAPORE 792464,464B,FERNVALE VINES,1.39739865318687,103.876474297939,103.876474297939,792464,FERNVALE ROAD,FERNVALE VINES,32802.6539731836,42142.8030829113
465B FERNVALE ROAD FERNVALE VINES SINGAPORE 792465,465B,FERNVALE VINES,1.39807197335742,103.877446732784,103.877446732784,792465,FERNVALE ROAD,FERNVALE VINES,32910.8715796554,42217.2574497089
466B FERNVALE ROAD FERNVALE VINES SINGAPORE 792466,466B,FERNVALE VINES,1.3976154779259,103.876814777395,103.876814777395,792466,FERNVALE ROAD,FERNVALE VINES,32840.5443432406,42166.7791700494
467B FERNVALE LINK FERNVALE LEA SINGAPORE 792467,467B,FERNVALE LEA,1.39807105476614,103.877933381661,103.877933381661,792467,FERNVALE LINK,FERNVALE LEA,32965.0290840771,42217.1568994671
468B FERNVALE LINK FERNVALE LEA SINGAPORE 792468,468B,FERNVALE LEA,1.39745479369412,103.878010391039,103.878010391039,792468,FERNVALE LINK,FERNVALE LEA,32973.6004927782,42149.0140126329
469B SENGKANG WEST WAY FERNVALE LEA SINGAPORE 792469,469B,FERNVALE LEA,1.39585256390138,103.877684905205,103.877684905205,792469,SENGKANG WEST WAY,FERNVALE LEA,32937.3816115865,41971.8468170241
470B FERNVALE LINK FERNVALE RIVERGROVE SINGAPORE 792470,470B,FERNVALE RIVERGROVE,1.39687117865647,103.879859508141,103.879859508141,792470,FERNVALE LINK,FERNVALE RIVERGROVE,33179.3837968931,42084.4847901072
471B FERNVALE STREET FERNVALE RIVERGROVE SINGAPORE 792471,471B,FERNVALE RIVERGROVE,1.39649875629749,103.880447337309,103.880447337309,792471,FERNVALE STREET,FERNVALE RIVERGROVE,33244.802171709,42043.3055009395
472B FERNVALE STREET FERNVALE RIVERGROVE SINGAPORE 792472,472B,FERNVALE RIVERGROVE,1.39677177049675,103.881104301377,103.881104301377,792472,FERNVALE STREET,FERNVALE RIVERGROVE,33317.9129124433,42073.4955143314
400C FERNVALE LANE FERNVALE DEW SINGAPORE 793400,400C,FERNVALE DEW,1.38997993205204,103.869486250186,103.869486250186,793400,FERNVALE LANE,FERNVALE DEW,32024.9902601726,41322.4652055521
401C FERNVALE LANE FERNVALE DEW SINGAPORE 793401,401C,FERNVALE DEW,1.39082218783417,103.870956411181,103.870956411181,793401,FERNVALE LANE,FERNVALE DEW,32188.5985492598,41415.6001546662
403C FERNVALE LANE FERN SPRING SINGAPORE 793403,403C,FERN SPRING,1.38831848133702,103.87293569738,103.87293569738,793403,FERNVALE LANE,FERN SPRING,32408.871893879,41138.7565235719
405C FERNVALE LANE FERN SPRING SINGAPORE 793405,405C,FERN SPRING,1.3891946666414,103.873437402619,103.873437402619,793405,FERNVALE LANE,FERN SPRING,32464.7035507485,41235.6416153312
406C FERNVALE ROAD FERN VIEW SINGAPORE 793406,406C,FERN VIEW,1.38867904803847,103.874702601249,103.874702601249,793406,FERNVALE ROAD,FERN VIEW,32605.5047324961,41178.6295373645
407C FERNVALE ROAD SINGAPORE 793407,407C,NIL,1.3889189051667,103.874892765174,103.874892765174,793407,FERNVALE ROAD,407C FERNVALE ROAD SINGAPORE 793407,32626.667047332,41205.1521002408
408C FERNVALE ROAD CORAL VALE SINGAPORE 793408,408C,CORAL VALE,1.38924471342298,103.876556317593,103.876556317593,793408,FERNVALE ROAD,CORAL VALE,32811.7982034767,41241.1816551946
410C FERNVALE ROAD CORAL SPRING SINGAPORE 793410,410C,CORAL SPRING,1.38993920373878,103.876479595851,103.876479595851,793410,FERNVALE ROAD,CORAL SPRING,32803.2586669624,41317.9747382924
415C FERNVALE LINK FERNVALE RIVERBOW SINGAPORE 793415,415C,FERNVALE RIVERBOW,1.38931984965925,103.88050116533,103.88050116533,793415,FERNVALE LINK,FERNVALE RIVERBOW,33250.8083990579,41249.4982377421
416C FERNVALE LINK FERNVALE RIVERBOW SINGAPORE 793416,416C,FERNVALE RIVERBOW,1.38979947929697,103.88064410102,103.88064410102,793416,FERNVALE LINK,FERNVALE RIVERBOW,33266.7142245015,41302.5335869342
418C FERNVALE LINK FERNVALE RIVERWALK SINGAPORE 793418,418C,FERNVALE RIVERWALK,1.39095014768306,103.881014689387,103.881014689387,793418,FERNVALE LINK,FERNVALE RIVERWALK,33307.953323205,41429.7695361525
430C FERNVALE LINK FERNVALE RIDGE SINGAPORE 793430,430C,FERNVALE RIDGE,1.39458976282864,103.878281439779,103.878281439779,793430,FERNVALE LINK,FERNVALE RIDGE,33003.7706503728,41832.2138886452
435C FERNVALE ROAD FERNVALE RESIDENCE SINGAPORE 793435,435C,FERNVALE RESIDENCE,1.39359978788204,103.876912987517,103.876912987517,793435,FERNVALE ROAD,FERNVALE RESIDENCE,32851.4820423722,41722.7445799746
436C FERNVALE ROAD FERNVALE GROVE SINGAPORE 793436,436C,FERNVALE GROVE,1.39231468377271,103.876970188022,103.876970188022,793436,FERNVALE ROAD,FERNVALE GROVE,32857.8503353428,41580.6443569008
439C SENGKANG WEST AVENUE FERNVALE COURT SINGAPORE 793439,439C,FERNVALE COURT,1.39221691150855,103.878650536649,103.878650536649,793439,SENGKANG WEST AVENUE,FERNVALE COURT,33044.8512961809,41569.836719295
440C FERNVALE LINK FERNVALE GARDENS SINGAPORE 793440,440C,FERNVALE GARDENS,1.39254251803193,103.878161021085,103.878161021085,793440,FERNVALE LINK,FERNVALE GARDENS,32990.3739499748,41605.8396081552
441C FERNVALE ROAD FERNVALE VISTA SINGAPORE 793441,441C,FERNVALE VISTA,1.39220060795463,103.874778712417,103.874778712417,793441,FERNVALE ROAD,FERNVALE VISTA,32613.9680844955,41568.0260279737
443C FERNVALE ROAD FERNVALE VISTA SINGAPORE 793443,443C,FERNVALE VISTA,1.39121766005235,103.873553181742,103.873553181742,793443,FERNVALE ROAD,FERNVALE VISTA,32477.5844544349,41459.3342432678
446C JALAN KAYU FERNVALE LODGE SINGAPORE 793446,446C,FERNVALE LODGE,1.39228448797032,103.873579578496,103.873579578496,793446,JALAN KAYU,FERNVALE LODGE,32480.5200553723,41577.2987458557
450C SENGKANG WEST WAY FERNVALE CREST SINGAPORE 793450,450C,FERNVALE CREST,1.39381453106764,103.873364255801,103.873364255801,793450,SENGKANG WEST WAY,FERNVALE CREST,32456.5545922965,41746.4827910271
453C FERNVALE ROAD FERNVALE FLORA SINGAPORE 793453,453C,FERNVALE FLORA,1.39353259342993,103.875029902679,103.875029902679,793453,FERNVALE ROAD,FERNVALE FLORA,32641.919659419,41715.3107631728
458C SENGKANG WEST ROAD FERNVALE WOODS SINGAPORE 793458,458C,FERNVALE WOODS,1.39285734486634,103.870875153546,103.870875153546,793458,SENGKANG WEST ROAD,FERNVALE WOODS,32179.552054286,41640.6374075115
460C SENGKANG WEST WAY FERNVALE GLADES SINGAPORE 793460,460C,FERNVALE GLADES,1.39409094759108,103.87003360852,103.87003360852,793460,SENGKANG WEST WAY,FERNVALE GLADES,32085.8970406763,41777.0414987281
461C SENGKANG WEST WAY FERNVALE GLADES SINGAPORE 793461,461C,FERNVALE GLADES,1.39410542991766,103.870728366216,103.870728366216,793461,SENGKANG WEST WAY,FERNVALE GLADES,32163.2143652514,41778.6440976635
468C FERNVALE LINK FERNVALE LEA SINGAPORE 793468,468C,FERNVALE LEA,1.39689621112725,103.877785328873,103.877785328873,793468,FERNVALE LINK,FERNVALE LEA,32948.5552496519,42087.2482872885
469C SENGKANG WEST WAY FERNVALE LEA SINGAPORE 793469,469C,FERNVALE LEA,1.39632353747039,103.877422028405,103.877422028405,793469,SENGKANG WEST WAY,FERNVALE LEA,32908.1259405846,42023.9241542649
470C FERNVALE LINK FERNVALE RIVERGROVE SINGAPORE 793470,470C,FERNVALE RIVERGROVE,1.39619403936395,103.879992372196,103.879992372196,793470,FERNVALE LINK,FERNVALE RIVERGROVE,33194.1712808739,42009.6104247663
471C FERNVALE STREET FERNVALE RIVERGROVE SINGAPORE 793471,471C,FERNVALE RIVERGROVE,1.39595291069106,103.8815041411,103.8815041411,793471,FERNVALE STREET,FERNVALE RIVERGROVE,33362.4116005814,41982.9510203358
472C FERNVALE STREET FERNVALE RIVERGROVE SINGAPORE 793472,472C,FERNVALE RIVERGROVE,1.39631552198212,103.881167314758,103.881167314758,793472,FERNVALE STREET,FERNVALE RIVERGROVE,33324.9264885578,42023.0459892545
400D FERNVALE LANE FERNVALE DEW SINGAPORE 794400,400D,FERNVALE DEW,1.39023758381005,103.869521678866,103.869521678866,794400,FERNVALE LANE,FERNVALE DEW,32028.9325742479,41350.9550965671
401D FERNVALE LANE FERNVALE DEW SINGAPORE 794401,401D,FERNVALE DEW,1.39056228323846,103.870923773374,103.870923773374,794401,FERNVALE LANE,FERNVALE DEW,32184.966845233,41386.8611581475
403D FERNVALE LANE FERN SPRING SINGAPORE 794403,403D,FERN SPRING,1.38821938378892,103.873178887951,103.873178887951,794403,FERNVALE LANE,FERN SPRING,32435.9360417882,41127.7992713209
418D FERNVALE LINK SINGAPORE 794418,418D,NIL,1.39090049582423,103.879802611295,103.879802611295,794418,FERNVALE LINK,418D FERNVALE LINK SINGAPORE 794418,33173.0649618078,41424.2765932716
430D FERNVALE LINK FERNVALE RIDGE SINGAPORE 794430,430D,FERNVALE RIDGE,1.3948267807044,103.878003319945,103.878003319945,794430,FERNVALE LINK,FERNVALE RIDGE,32972.8190945107,41858.4215434175
436D FERNVALE ROAD FERNVALE GROVE SINGAPORE 794436,436D,FERNVALE GROVE,1.3921787440658,103.876627568951,103.876627568951,794436,FERNVALE ROAD,FERNVALE GROVE,32819.7216049135,41565.612126004
440D FERNVALE LINK FERNVALE GARDENS SINGAPORE 794440,440D,FERNVALE GARDENS,1.39251970161811,103.87871404171,103.87871404171,794440,FERNVALE LINK,FERNVALE GARDENS,33051.9179320717,41603.3178613596
441D FERNVALE ROAD FERNVALE VISTA SINGAPORE 794441,441D,FERNVALE VISTA,1.39209223539633,103.875248015845,103.875248015845,794441,FERNVALE ROAD,FERNVALE VISTA,32666.1956114713,41556.0436596517
453D FERNVALE ROAD FERNVALE FLORA SINGAPORE 794453,453D,FERNVALE FLORA,1.39341707295426,103.875340178233,103.875340178233,794453,FERNVALE ROAD,FERNVALE FLORA,32676.4494660478,41702.5377043113
470D FERNVALE LINK FERNVALE RIVERGROVE SINGAPORE 794470,470D,FERNVALE RIVERGROVE,1.39653911834133,103.879852067252,103.879852067252,794470,FERNVALE LINK,FERNVALE RIVERGROVE,33178.5564518264,42047.7672136147
472D FERNVALE STREET FERNVALE RIVERGROVE SINGAPORE 794472,472D,FERNVALE RIVERGROVE,1.39711121433202,103.881345153859,103.881345153859,794472,FERNVALE STREET,FERNVALE RIVERGROVE,33344.7158173844,42111.0300539713
